[{"closed": "hotel", "name": "Jadran", "name:it": "ex Pescheria", "note": "Hotel opet kupljen 2017. godine, mo\u017eda se uskoro otvori (provjeriti jel otvoren)", "tourism": "hotel", "rating": 2, "lat": "45.3057109", "lon": "14.5362280"}, {"amenity": "restaurant", "name": "Bakarska Konoba", "rating": 2, "lat": "45.3071981", "lon": "14.5359137"}, {"addr:housenumber": "2", "addr:street": "Kre\u0161imirova ulica", "amenity": "cinema", "name": "Art-kino", "website": "https://www.art-kino.org", "rating": 2, "lat": "45.3287088", "lon": "14.4362465"}, {"amenity": "pharmacy", "dispensing": "no", "healthcare": "pharmacy", "rating": 2, "lat": "45.3273256", "lon": "14.4392908"}, {"addr:city": "Rijeka", "addr:housenumber": "8", "addr:postcode": "51000", "addr:street": "\u0160ime Ljubi\u0107a", "amenity": "bar", "bar": "yes", "name": "Buffet La Grotta", "opening_hours": "Su off, Mo-Th 07:00-00:00, Fr 07:00-02:00, Sa 10:00-02:00", "phone": "+385 97 673 4561", "rating": 2, "lat": "45.3276908", "lon": "14.4424144"}, {"amenity": "bank", "name": "Fina", "rating": 2, "lat": "45.3289593", "lon": "14.4405478"}, {"amenity": "restaurant", "cuisine": "regional", "name": "Index", "rating": 2, "lat": "45.3297016", "lon": "14.4343370"}, {"amenity": "library", "name": "Gradska knji\u017enica (Dje\u010dji odjel \"Stribor\")", "rating": 2, "lat": "45.3276204", "lon": "14.4411349"}, {"addr:city": "Rijeka", "addr:housenumber": "1", "addr:postcode": "51000", "addr:street": "Dolac", "amenity": "library", "email": "ravnatelj@svkri.hr", "fax": "+385 (0)51 332-006", "name": "Sveu\u010dili\u0161na knji\u017enica", "phone": "+385 (0)51 336-911;+385 (0)51 336-129", "website": "https://www.svkri.uniri.hr", "wheelchair": "no", "wikidata": "Q12643116", "wikipedia": "hr:Sveu\u010dili\u0161na knji\u017enica u Rijeci", "rating": 2, "lat": "45.3278912", "lon": "14.4407579"}, {"addr:city": "Rijeka", "addr:housenumber": "14", "addr:postcode": "51000", "addr:street": "Korzo", "information": "office", "name": "Turisti\u010dke informacije", "name:en": "Tourist info", "name:it": "Informazioni turistiche", "phone": "+385 51 335 882", "tourism": "information", "website": "http://www.visitrijeka.hr/Korisne_informacije/TIC", "rating": 2, "lat": "45.3268342", "lon": "14.4425574"}, {"addr:city": "Rijeka", "addr:postcode": "51000", "addr:street": "Dolac", "amenity": "pub", "name": "\"Ba\u010dva Pub\"", "opening_hours": "Mo-Sa 08:00-02:00", "toilets:wheelchair": "no", "wheelchair": "limited", "rating": 2, "lat": "45.3282130", "lon": "14.4405235"}, {"amenity": "library", "name": "Gradska knji\u017enica - Dom lijepe knji\u017eevnosti", "rating": 2, "lat": "45.3274391", "lon": "14.4408195"}, {"addr:city": "Rijeka", "addr:postcode": "51000", "amenity": "fast_food", "name": "Food City", "rating": 2, "lat": "45.3266427", "lon": "14.4422520"}, {"amenity": "cafe", "name": "Garibaldi", "rating": 2, "lat": "45.3258804", "lon": "14.4450725"}, {"amenity": "atm", "name": "HPB", "rating": 2, "lat": "45.3273878", "lon": "14.4442557"}, {"name": "Aromatica shop", "shop": "convenience", "rating": 1, "lat": "45.3272843", "lon": "14.4441030"}, {"addr:housenumber": "23", "addr:street": "\u0160etali\u0161te XIII. divizije", "email": "rijeka@hfhs.hr", "name": "Omladinski hostel Rijeka", "name:en": "Youth hostel Rijeka", "operator": "Hrvatski ferijalni i hostelski savez", "phone": "+38551406420", "tourism": "hostel", "rating": 2, "lat": "45.3217938", "lon": "14.4597351"}, {"amenity": "parking", "name": "Odmori\u0161te Vrata Jadrana", "rating": 2, "lat": "45.3557669", "lon": "14.3517424"}, {"amenity": "parking", "name": "Odmori\u0161te Vrata Jadrana", "rating": 2, "lat": "45.3550632", "lon": "14.3511683"}, {"amenity": "cafe", "opening_hours": "24/7", "rating": 2, "lat": "45.3555318", "lon": "14.3531558"}, {"amenity": "cafe", "opening_hours": "24/7", "rating": 2, "lat": "45.3553295", "lon": "14.3499267"}, {"name": "Villa Dinka", "tourism": "guest_house", "rating": 2, "lat": "45.3519342", "lon": "14.3225905"}, {"amenity": "restaurant", "cuisine": "pizza", "name": "Moho", "wheelchair": "limited", "rating": 2, "lat": "45.3474983", "lon": "14.3201297"}, {"amenity": "library", "name": "Gradska knji\u017enica - periodika", "rating": 2, "lat": "45.3254800", "lon": "14.4437545"}, {"brand": "Konzum", "brand:wikidata": "Q518563", "brand:wikipedia": "hr:Konzum", "name": "Konzum", "ref:vatin": "HR29955634590", "shop": "convenience", "rating": 1, "lat": "45.3267295", "lon": "14.4469358"}, {"addr:housenumber": "3", "addr:street": "Zadarska", "amenity": "courthouse", "name": "Trgova\u010dki sud u Rijeci", "opening_hours": "Mo-Fr 07:30-15:30", "rating": 2, "lat": "45.3276772", "lon": "14.4382188"}, {"amenity": "restaurant", "cuisine": "croatian;italian", "name": "Porto Grillo", "rating": 2, "lat": "45.3268807", "lon": "14.4397149"}, {"amenity": "pharmacy", "dispensing": "no", "rating": 2, "lat": "45.3257051", "lon": "14.4432121"}, {"amenity": "bank", "atm": "yes", "name": "Podravska banka", "ref:vatin": "HR97326283154", "rating": 2, "lat": "45.3255508", "lon": "14.4430860"}, {"addr:city": "Rijeka", "addr:housenumber": "10-12", "addr:postcode": "51000", "addr:street": "Ante Star\u010devi\u0107a", "amenity": "bank", "atm": "yes", "brand": "Zagreba\u010dka banka", "brand:wikidata": "Q140381", "brand:wikipedia": "en:Zagreba\u010dka banka", "name": "Zagreba\u010dka banka", "operator": "ZABA", "ref:vatin": "HR92963223473", "rating": 2, "lat": "45.3259209", "lon": "14.4444876"}, {"amenity": "bank", "atm": "yes", "name": "Raiffeisenbank", "ref:vatin": "HR53056966535", "rating": 2, "lat": "45.3251826", "lon": "14.4446960"}, {"amenity": "restaurant", "cuisine": "grill", "name": "Grill house", "opening_hours": "Mo 17:00-24:00, Tu-Su 12:00-24:00", "wheelchair": "no", "rating": 2, "lat": "45.3230366", "lon": "14.2984914"}, {"name": "Villa Nora", "tourism": "motel", "url": "http://villanora.info", "rating": 2, "lat": "45.3404634", "lon": "14.3732387"}, {"boat:rental": "yes", "name": "Dami Boats", "shop": "boat", "rating": 1, "lat": "45.3417083", "lon": "14.3728781"}, {"addr:city": "Rijeka", "addr:housenumber": "52", "addr:postcode": "51000", "addr:street": "Istarska", "name": "Gumiservis", "operator": "http://www.gumiservis.hr", "shop": "car_repair", "rating": 1, "lat": "45.3418531", "lon": "14.3723565"}, {"shop": "bakery", "rating": 1, "lat": "45.3417539", "lon": "14.3727080"}, {"name": "Nautika centar", "shop": "boat", "rating": 1, "lat": "45.3417731", "lon": "14.3725921"}, {"operator": "Brodokomerc", "shop": "convenience", "rating": 1, "lat": "45.3209290", "lon": "14.4748945"}, {"amenity": "car_wash", "rating": 2, "lat": "45.3424546", "lon": "14.4248103"}, {"amenity": "pharmacy", "dispensing": "yes", "rating": 2, "lat": "45.3487028", "lon": "14.4203966"}, {"amenity": "doctors", "emergency": "no", "healthcare": "doctor", "rating": 2, "lat": "45.3486569", "lon": "14.4206025"}, {"amenity": "parking", "layer": "-1", "parking": "underground", "rating": 2, "lat": "45.3178426", "lon": "14.4685890"}, {"amenity": "fuel", "internet_access": "wlan", "name": "Europetrol", "rating": 2, "lat": "45.3486557", "lon": "14.4950576"}, {"addr:city": "Rijeka", "addr:postcode": "51000", "addr:street": "Ulica Jo\u017ee Vlahovi\u0107a", "amenity": "car_wash", "email": "autopraonicakantrida@gmail.com", "name": "Automatska Autopraonica i Self Service Kantrida", "opening_hours": "Mo-Su 08:00-20:00", "phone": "+385 98 32 67 18", "website": "https://autopraonica-kantrida.com/", "rating": 2, "lat": "45.3389691", "lon": "14.3960117"}, {"addr:housenumber": "10", "addr:postcode": "51000", "addr:street": "Ulica Jo\u017ee Vlahovi\u0107a", "amenity": "school", "isced:level": "3", "name": "Prometna \u0161kola Rijeka", "ref:e-matica": "08-071-517", "website": "https://prometna-skola-rijeka.hr/", "rating": 2, "lat": "45.3370349", "lon": "14.4021915"}, {"addr:housenumber": "10", "addr:postcode": "51000", "addr:street": "Ulica Jo\u017ee Vlahovi\u0107a", "amenity": "school", "isced:level": "3", "name": "Strojarska \u0161kola za industrijska i obrtni\u010dka zanimanja Rijeka", "name:it": "Scuola per l'artigianato", "ref:e-matica": "08-071-501", "website": "http://www.ss-strojarskazaiiozanimanja-ri.skole.hr/", "rating": 2, "lat": "45.3367766", "lon": "14.4021590"}, {"name": "Trgoauto", "service": "tyres;parts;electrical", "shop": "car", "rating": 1, "lat": "45.3415463", "lon": "14.3967203"}, {"amenity": "restaurant", "name": "Konoba Tarsa", "rating": 2, "lat": "45.3317487", "lon": "14.4649074"}, {"amenity": "veterinary", "name": "Veterinar Sanjin Poli\u0107", "rating": 2, "lat": "45.3311584", "lon": "14.4655117"}, {"amenity": "toilets", "rating": 2, "lat": "45.3421023", "lon": "14.4249757"}, {"amenity": "restaurant", "name": "Ronjgi", "rating": 2, "lat": "45.3896770", "lon": "14.4002903"}, {"amenity": "fast_food", "brand": "McDonald's", "brand:wikidata": "Q38076", "brand:wikipedia": "en:McDonald's", "cuisine": "burger", "name": "McDonald's", "opening_hours": "Su-Fr 07:00-00:00; Sa 10:00-01:00", "ref:vatin": "HR97492131626", "takeaway": "yes", "wheelchair": "yes", "rating": 2, "lat": "45.3270093", "lon": "14.4413458"}, {"addr:city": "Opatija", "addr:country": "HR", "addr:housenumber": "4", "addr:postcode": "51410", "addr:street": "Ulica Eugena Kumi\u010di\u010da", "amenity": "post_office", "fax": "051/525-831", "name": "51410 Opatija", "opening_hours": "Mo-Fr 07:00-20:00, Sa 07:00-14:00", "operator": "Hrvatska po\u0161ta", "operator:wikidata": "Q507289", "operator:wikipedia": "hr:Hrvatska po\u0161ta", "phone": "072/303-304", "website": "https://www.posta.hr/pretrazivanje-postanskih-ureda/263?uredi=918", "rating": 2, "lat": "45.3388808", "lon": "14.3079697"}, {"amenity": "ferry_terminal", "ferry": "yes", "public_transport": "station", "rating": 2, "lat": "45.0247909", "lon": "14.5756541"}, {"amenity": "telephone", "operator": "T-COM", "payment:telephone_cards": "yes", "rating": 2, "lat": "45.3355024", "lon": "14.3109579"}, {"amenity": "telephone", "operator": "T-COM", "payment:telephone_cards": "yes", "rating": 2, "lat": "45.3328265", "lon": "14.3025651"}, {"amenity": "bus_station", "name": "Opatija", "wheelchair": "no", "rating": 2, "lat": "45.3329387", "lon": "14.3025464"}, {"amenity": "atm", "name": "Erste", "operator": "Erste Bank Croatia", "wheelchair": "yes", "rating": 2, "lat": "45.3323947", "lon": "14.3026038"}, {"amenity": "toilets", "fee": "yes", "name": "toilets", "rating": 2, "lat": "45.3327996", "lon": "14.3020267"}, {"amenity": "telephone", "operator": "T-COM", "payment:telephone_cards": "yes", "rating": 2, "lat": "45.3439851", "lon": "14.3116545"}, {"leisure": "playground", "rating": 1, "lat": "45.3342491", "lon": "14.2998507"}, {"amenity": "car_wash", "rating": 2, "lat": "45.3423967", "lon": "14.3114979"}, {"amenity": "parking", "capacity:disabled": "no", "capacity:parent": "no", "capacity:women": "no", "fee": "yes", "name": "Hotel Ambasador", "park_ride": "no", "parking": "surface", "rating": 2, "lat": "45.3400806", "lon": "14.3103465"}, {"amenity": "telephone", "operator": "T-COM", "payment:telephone_cards": "yes", "rating": 2, "lat": "45.3403822", "lon": "14.3096503"}, {"amenity": "parking", "capacity:disabled": "no", "capacity:parent": "no", "capacity:women": "no", "fee": "yes", "name": "Hotel Ambasador", "park_ride": "no", "parking": "surface", "rating": 2, "lat": "45.3408027", "lon": "14.3124299"}, {"amenity": "atm", "brand": "Intesa Sanpaolo", "check_date": "2021-07-16", "name": "PBZ", "operator": "Privredna banka Zagreb", "rating": 2, "lat": "45.3336864", "lon": "14.3048225"}, {"information": "office", "name": "Opatija", "tourism": "information", "rating": 2, "lat": "45.3338924", "lon": "14.3050828"}, {"amenity": "telephone", "operator": "T-COM", "payment:telephone_cards": "yes", "rating": 2, "lat": "45.3339657", "lon": "14.3051819"}, {"amenity": "nightclub", "name": "Lord Byron", "rating": 2, "lat": "45.3347312", "lon": "14.3059927"}, {"amenity": "parking", "fee": "yes", "name": "Hotel Belvedere", "park_ride": "no", "parking": "surface", "rating": 2, "lat": "45.3431486", "lon": "14.3148395"}, {"name": "Konzum", "opening_hours": "07:00-22:00", "ref:vatin": "HR29955634590", "shop": "supermarket", "rating": 1, "lat": "45.3387183", "lon": "14.3091715"}, {"amenity": "telephone", "operator": "T-Com", "payment:telephone_cards": "yes", "rating": 2, "lat": "45.3386794", "lon": "14.3094859"}, {"addr:street": "Ulica Svetog Florijana", "amenity": "fire_station", "name": "Opatija", "name:hr": "JVP Opatija", "rating": 2, "lat": "45.3375873", "lon": "14.3075100"}, {"amenity": "atm", "name": "Erste", "operator": "Erste Bank Croatia", "rating": 2, "lat": "45.3383822", "lon": "14.3087486"}, {"amenity": "telephone", "operator": "T-Com", "payment:telephone_cards": "yes", "rating": 2, "lat": "45.3367119", "lon": "14.3078158"}, {"amenity": "atm", "name": "OTP", "operator": "OTP Banka", "rating": 2, "lat": "45.3378752", "lon": "14.3087761"}, {"amenity": "post_box", "operator": "Hrvatska po\u0161ta", "rating": 2, "lat": "45.3382928", "lon": "14.3092015"}, {"amenity": "parking", "capacity:disabled": "no", "capacity:parent": "no", "capacity:women": "no", "fee": "yes", "park_ride": "no", "parking": "surface", "rating": 2, "lat": "45.3404068", "lon": "14.3077088"}, {"amenity": "telephone", "operator": "T-Com", "payment:telephone_cards": "yes", "rating": 2, "lat": "45.3408423", "lon": "14.3076471"}, {"amenity": "parking", "fee": "yes", "name": "Hotel Admiral", "park_ride": "no", "parking": "multi-storey", "rating": 2, "lat": "45.3284568", "lon": "14.3006157"}, {"addr:housenumber": "32", "addr:street": "Janka Poli\u0107a Kamova", "name": "Dom Crveni Kri\u017e Rijeka", "tourism": "hostel", "rating": 2, "lat": "45.3213614", "lon": "14.4614164"}, {"amenity": "restaurant", "name": "Bajta", "rating": 2, "lat": "45.3060028", "lon": "14.5847990"}, {"amenity": "parking", "parking": "surface", "rating": 2, "lat": "45.3341141", "lon": "14.5890207"}, {"amenity": "parking", "parking": "surface", "rating": 2, "lat": "45.3340809", "lon": "14.5831921"}, {"amenity": "ferry_terminal", "ferry": "yes", "name": "Rijeka", "public_transport": "stop_position", "rating": 2, "lat": "45.3241818", "lon": "14.4391587"}, {"amenity": "ferry_terminal", "ferry": "yes", "name": "Cres", "name:sr": "\u0426\u0440\u0435\u0441", "public_transport": "station", "rating": 2, "lat": "44.9571377", "lon": "14.4088121"}, {"amenity": "telephone", "operator": "T-Com", "payment:telephone_cards": "yes", "rating": 2, "lat": "45.3483995", "lon": "14.3184756"}, {"check_date": "2021-07-16", "information": "map", "map_size": "city", "map_type": "street", "name": "City Map Opatija", "tourism": "information", "rating": 2, "lat": "45.3330126", "lon": "14.3041761"}, {"amenity": "atm", "check_date": "2021-07-16", "name": "Istarska", "operator": "Istarska Kreditna Banka UMAG", "wheelchair": "yes", "rating": 2, "lat": "45.3334795", "lon": "14.3045427"}, {"amenity": "atm", "brand": "UniCredit", "name": "Zagreba\u010dka banka", "operator": "Zagreba\u010dka banka", "rating": 2, "lat": "45.3342930", "lon": "14.3060552"}, {"amenity": "telephone", "operator": "T-COM", "payment:telephone_cards": "yes", "rating": 2, "lat": "45.3347416", "lon": "14.3068037"}, {"amenity": "atm", "name": "OTP", "operator": "OTP Banka", "rating": 2, "lat": "45.3350344", "lon": "14.3068233"}, {"amenity": "post_box", "operator": "Hrvatska Po\u0161ta", "rating": 2, "lat": "45.3351023", "lon": "14.3072874"}, {"amenity": "atm", "name": "HPB", "operator": "HPB Hrvatska Po\u0161tanska Banka", "rating": 2, "lat": "45.3381056", "lon": "14.3087860"}, {"amenity": "atm", "brand": "UniCredit", "name": "Zagreba\u010dka banka", "operator": "Zagreba\u010dka banka", "rating": 2, "lat": "45.3391684", "lon": "14.3096641"}, {"amenity": "telephone", "operator": "T-Com", "payment:telephone_cards": "yes", "rating": 2, "lat": "45.3393100", "lon": "14.3097063"}, {"addr:city": "Rijeka", "addr:housenumber": "7", "addr:street": "Matije Gupca", "amenity": "restaurant", "contact:facebook": "https://www.facebook.com/makrovegari", "contact:phone": "+385 51 321 145", "diet:vegetarian": "only", "name": "Makrovega", "opening_hours": "Mo-Fr 08:00-17:00", "rating": 2, "lat": "45.3250430", "lon": "14.4451281"}, {"amenity": "cafe", "name": "Automat club Grobnik", "rating": 2, "lat": "45.3734438", "lon": "14.4743995"}, {"name": "Rt Dobra", "name:it": "Punta Kri\u017e", "natural": "cape", "source": "DGU-TK25", "rating": 1, "lat": "45.2862942", "lon": "14.5749199"}, {"name": "Rt Goranin", "natural": "cape", "source": "DGU-TK25", "rating": 1, "lat": "45.3004444", "lon": "14.5418737"}, {"amenity": "fuel", "brand": "Petrol", "fuel:diesel": "yes", "fuel:octane_95": "yes", "fuel:octane_98": "yes", "name": "Dra\u017eice", "opening_hours": "06:00-22:00", "operator": "Petrol", "shop": "convenience", "rating": 2, "lat": "45.3869838", "lon": "14.4677220"}, {"addr:city": "Dra\u017eice", "addr:country": "HR", "addr:housenumber": "64", "addr:postcode": "51218", "addr:street": "Dra\u017ei\u010dkih boraca", "amenity": "post_office", "fax": "+385 51 525 826", "name": "51218 Dra\u017eice", "opening_hours": "Mo-Fr 07:00-20:00, Sa 07:00-14:00", "operator": "Hrvatska po\u0161ta", "operator:wikidata": "Q507289", "operator:wikipedia": "hr:Hrvatska po\u0161ta", "phone": "+385 51 525 825", "rating": 2, "lat": "45.3889355", "lon": "14.4664514"}, {"amenity": "bank", "atm": "yes", "name": "PBZ", "ref:vatin": "HR02535697732", "rating": 2, "lat": "45.3889438", "lon": "14.4671373"}, {"amenity": "restaurant", "rating": 2, "lat": "45.3890766", "lon": "14.4662201"}, {"amenity": "pharmacy", "rating": 2, "lat": "45.3890317", "lon": "14.4663128"}, {"amenity": "dentist", "rating": 2, "lat": "45.3897628", "lon": "14.4655230"}, {"amenity": "doctors", "rating": 2, "lat": "45.3898345", "lon": "14.4656319"}, {"amenity": "bar", "internet_access": "wlan", "name": "Max", "smoking": "yes", "rating": 2, "lat": "45.3892284", "lon": "14.4665857"}, {"name": "Izvor Rje\u010dine", "natural": "spring", "rating": 1, "lat": "45.4251163", "lon": "14.4241837"}, {"leisure": "sports_centre", "rating": 1, "lat": "45.3879833", "lon": "14.4627741"}, {"amenity": "fire_station", "rating": 2, "lat": "45.3880586", "lon": "14.4630419"}, {"addr:city": "Rijeka", "addr:housenumber": "5", "addr:postcode": "51000", "addr:street": "Ulica \u017ertava fa\u0161izma", "amenity": "prison", "name": "Zatvor u Rijeci", "rating": 2, "lat": "45.3281012", "lon": "14.4444961"}, {"amenity": "bank", "atm": "yes", "name": "Erste banka", "ref:vatin": "HR23057039320", "rating": 2, "lat": "45.3569193", "lon": "14.4879160"}, {"amenity": "public_building", "name": "op\u0107ina \u010cavle", "rating": 2, "lat": "45.3570335", "lon": "14.4877439"}, {"information": "office", "tourism": "information", "rating": 2, "lat": "45.3569558", "lon": "14.4879539"}, {"amenity": "bench", "rating": 2, "lat": "45.3202058", "lon": "14.2974402"}, {"amenity": "bench", "rating": 2, "lat": "45.3214496", "lon": "14.2981368"}, {"amenity": "bench", "rating": 2, "lat": "45.3221410", "lon": "14.2983440"}, {"amenity": "bench", "rating": 2, "lat": "45.3227033", "lon": "14.2989540"}, {"amenity": "cafe", "name": "La Terrazza", "rating": 2, "lat": "45.3240153", "lon": "14.2994223"}, {"amenity": "bench", "rating": 2, "lat": "45.3250379", "lon": "14.2998848"}, {"amenity": "restaurant", "name": "Domino Restaurant", "note": "closed during winter season", "wheelchair": "limited", "rating": 2, "lat": "45.3262990", "lon": "14.2996904"}, {"addr:street": "Lungo mare", "name": "Picasso", "shop": "hairdresser", "rating": 1, "lat": "45.3263575", "lon": "14.2996209"}, {"name": "Keti", "shop": "deli", "rating": 1, "lat": "45.3264517", "lon": "14.2996611"}, {"amenity": "restaurant", "name": "Obala", "rating": 2, "lat": "45.3265329", "lon": "14.2997066"}, {"amenity": "cafe", "name": "La mare", "wheelchair": "limited", "rating": 2, "lat": "45.3280239", "lon": "14.3006483"}, {"amenity": "restaurant", "cuisine": "grill", "name": "A & D grill", "rating": 2, "lat": "45.3281583", "lon": "14.3013862"}, {"amenity": "toilets", "opening_hours": "09:00-20:00", "wheelchair": "no", "rating": 2, "lat": "45.3283959", "lon": "14.3011336"}, {"amenity": "bench", "rating": 2, "lat": "45.3289181", "lon": "14.3014207"}, {"amenity": "ice_cream", "name": "Stella", "rating": 2, "lat": "45.3290436", "lon": "14.3014073"}, {"amenity": "cafe", "name": "Dallas", "wheelchair": "yes", "rating": 2, "lat": "45.3299416", "lon": "14.3020636"}, {"amenity": "bar", "name": "Victorious", "wheelchair": "yes", "rating": 2, "lat": "45.3300598", "lon": "14.3021226"}, {"amenity": "cafe", "name": "Lungo mare", "wheelchair": "yes", "rating": 2, "lat": "45.3301464", "lon": "14.3021487"}, {"name": "Sonora", "shop": "jewelry", "wheelchair": "yes", "rating": 1, "lat": "45.3304494", "lon": "14.3021582"}, {"name": "Golden harmony", "shop": "jewelry", "wheelchair": "yes", "rating": 1, "lat": "45.3305230", "lon": "14.3021340"}, {"amenity": "bar", "facebook": "https://www.facebook.com/colosseum.opatija/", "name": "Colosseum", "wheelchair": "no", "rating": 2, "lat": "45.3302921", "lon": "14.3021991"}, {"amenity": "ice_cream", "contact:instagram": "https://www.instagram.com/gelateria_perla/", "name": "Gelateria Perla", "wheelchair": "yes", "rating": 2, "lat": "45.3307655", "lon": "14.3022481"}, {"amenity": "cafe", "name": "Seven", "rating": 2, "lat": "45.3306587", "lon": "14.3024560"}, {"shop": "clothes", "rating": 1, "lat": "45.3308473", "lon": "14.3024802"}, {"addr:housenumber": "160", "addr:street": "Ulica mar\u0161ala Tita", "name": "Galeb", "tourism": "hotel", "website": "http://hotel-galeb.hr/", "wheelchair": "no", "rating": 2, "lat": "45.3311712", "lon": "14.3022067"}, {"amenity": "restaurant", "name": "Elita", "wheelchair": "no", "rating": 2, "lat": "45.3314497", "lon": "14.3022510"}, {"amenity": "restaurant", "name": "Slatina", "wheelchair": "no", "rating": 2, "lat": "45.3316023", "lon": "14.3021777"}, {"amenity": "restaurant", "name": "Kamelija", "rating": 2, "lat": "45.3331451", "lon": "14.3037342"}, {"amenity": "restaurant", "layer": "-1", "name": "Vongola", "rating": 2, "lat": "45.3334698", "lon": "14.3054187"}, {"amenity": "cafe", "name": "Wagner", "wheelchair": "yes", "rating": 2, "lat": "45.3337602", "lon": "14.3056394"}, {"amenity": "restaurant", "name": "Bevanda", "website": "http://www.bevanda.hr/en/restoran/", "rating": 2, "lat": "45.3348925", "lon": "14.3109720"}, {"amenity": "cafe", "name": "Hemingway", "wheelchair": "limited", "rating": 2, "lat": "45.3356122", "lon": "14.3105409"}, {"amenity": "toilets", "rating": 2, "lat": "45.3357994", "lon": "14.3104890"}, {"amenity": "restaurant", "name": "Sveti Jakov", "rating": 2, "lat": "45.3344939", "lon": "14.3068897"}, {"amenity": "bar", "name": "Monokini", "rating": 2, "lat": "45.3372562", "lon": "14.3079677"}, {"ele": "837", "name": "Veliki Kamenjak", "natural": "peak", "rating": 1, "lat": "45.3788791", "lon": "14.5551984"}, {"addr:housenumber": "58", "addr:street": "Vukovarska ulica", "amenity": "school", "isced:level": "3", "name": "Tehni\u010dka \u0161kola", "ref:e-matica": "08-071-513", "website": "http://www.ss-tehnicka-ri.skole.hr/", "rating": 2, "lat": "45.3380543", "lon": "14.4249497"}, {"shop": "bakery", "rating": 1, "lat": "45.3442679", "lon": "14.3880117"}, {"amenity": "restaurant", "name": "\u017damari\u0107", "rating": 2, "lat": "45.3452674", "lon": "14.3887479"}, {"addr:city": "Rijeka", "addr:country": "HR", "addr:housenumber": "bb", "addr:postcode": "51106", "addr:street": "Bo\u017ee Vidasa", "amenity": "post_office", "fax": "+385 51 525 924", "level": "1", "name": "51106 Rijeka", "opening_hours": "Mo-Fr 07:00-20:00, Sa 07:00-14:00", "operator": "Hrvatska po\u0161ta", "operator:wikidata": "Q507289", "operator:wikipedia": "hr:Hrvatska po\u0161ta", "phone": "+385 51 525 923", "rating": 2, "lat": "45.3443593", "lon": "14.3828983"}, {"addr:housenumber": "58", "addr:street": "Vukovarska ulica", "amenity": "college", "name": "Veleu\u010dili\u0161te u Rijeci", "website": "https://www.veleri.hr/", "wheelchair": "no", "wikidata": "Q16110696", "wikipedia": "hr:Veleu\u010dili\u0161te u Rijeci", "rating": 2, "lat": "45.3382900", "lon": "14.4243918"}, {"name": "Rt Kolova", "name:it": "Punta Kolova", "natural": "cape", "source": "DGU-TK25", "wikidata": "Q25295402", "rating": 1, "lat": "45.3191116", "lon": "14.2957468"}, {"addr:city": "Rijeka", "addr:housenumber": "22", "addr:postcode": "51000", "addr:street": "Korzo", "amenity": "pharmacy", "dispensing": "yes", "drive_through": "no", "healthcare": "pharmacy", "name": "Korzo", "rating": 2, "lat": "45.3271164", "lon": "14.4417723"}, {"amenity": "pharmacy", "healthcare": "pharmacy", "name": "Centar", "opening_hours": "24/7", "rating": 2, "lat": "45.3274395", "lon": "14.4380564"}, {"amenity": "restaurant", "cuisine": "italian", "name": "Spagho", "rating": 2, "lat": "45.3257164", "lon": "14.4425810"}, {"brand": "Konzum", "brand:wikidata": "Q518563", "brand:wikipedia": "hr:Konzum", "name": "Konzum", "operator": "Konzum", "ref:vatin": "HR29955634590", "shop": "supermarket", "rating": 1, "lat": "45.3577659", "lon": "14.3103415"}, {"name": "Damir", "shop": "butcher", "rating": 1, "lat": "45.3633078", "lon": "14.3079456"}, {"amenity": "restaurant", "name": "Lo\u017ea", "rating": 2, "lat": "45.3727443", "lon": "14.3485487"}, {"tourism": "viewpoint", "rating": 2, "lat": "45.3729770", "lon": "14.3474578"}, {"amenity": "kindergarten", "name": "Dje\u010dji vrti\u0107 Vladimir Nazor", "rating": 2, "lat": "45.3730853", "lon": "14.3480387"}, {"leisure": "playground", "rating": 1, "lat": "45.3730644", "lon": "14.3479513"}, {"tourism": "viewpoint", "rating": 2, "lat": "45.3743467", "lon": "14.3478331"}, {"name": "U krilu majke Kastva", "tourism": "artwork", "rating": 2, "lat": "45.3737594", "lon": "14.3484127"}, {"name": "Vindija", "opening_hours": "Mo-Sa 07:00-20:00; Sa 08:00-13:00", "shop": "convenience", "rating": 1, "lat": "45.3727612", "lon": "14.3490154"}, {"amenity": "cafe", "name": "Lo\u017ea", "rating": 2, "lat": "45.3727530", "lon": "14.3487337"}, {"amenity": "restaurant", "name": "O\u0161tarija Fortica", "rating": 2, "lat": "45.3724570", "lon": "14.3486743"}, {"tourism": "viewpoint", "rating": 2, "lat": "45.3735631", "lon": "14.3473800"}, {"amenity": "pharmacy", "healthcare": "pharmacy", "rating": 2, "lat": "45.3099161", "lon": "14.4925669"}, {"addr:city": "Kostrena", "addr:country": "HR", "addr:housenumber": "89a", "addr:postcode": "51221", "addr:street": "Glavani", "amenity": "post_office", "fax": "+385 51 525 911", "name": "51221 Kostrena", "opening_hours": "Mo-Fr 07:00-20:00, Sa 07:00-14:00", "operator": "Hrvatska po\u0161ta", "operator:wikidata": "Q507289", "operator:wikipedia": "hr:Hrvatska po\u0161ta", "phone": "+385 51 525 910", "rating": 2, "lat": "45.3098660", "lon": "14.4926983"}, {"amenity": "bus_station", "bus": "yes", "public_transport": "station", "rating": 2, "lat": "45.3065693", "lon": "14.4974730"}, {"amenity": "bus_station", "bus": "yes", "public_transport": "station", "rating": 2, "lat": "45.3063159", "lon": "14.4975603"}, {"ele": "432", "name": "Veli vrh", "name:it": "Monte Lesco", "natural": "peak", "rating": 1, "lat": "45.3620340", "lon": "14.4389581"}, {"amenity": "cafe", "name": "Galija", "opening_hours": "Mo-Th 08:00-03:00, Fr-Su 08:00-04:00", "website": "https://hr-hr.facebook.com/galija.opatija/", "wheelchair": "limited", "rating": 2, "lat": "45.3361030", "lon": "14.3106211"}, {"name": "Konzum", "ref:vatin": "HR29955634590", "shop": "supermarket", "rating": 1, "lat": "45.3643512", "lon": "14.3484824"}, {"addr:street": "Mar\u0161ala Tita", "amenity": "restaurant", "cuisine": "pizza", "name": "Andy's Pizza", "rating": 2, "lat": "45.3365881", "lon": "14.3077756"}, {"artist": "Zvonko Car", "artist:wikidata": "Q12645883", "artwork_type": "statue", "name": "Djevojka s galebom", "name:en": "Maiden With a Seagull", "name:zh": "\u5c11\u5973\u6d77\u3121", "start_date": "1956", "tourism": "artwork", "wheelchair": "yes", "wikidata": "Q26224687", "rating": 2, "lat": "45.3332624", "lon": "14.3066904"}, {"addr:city": "Rijeka", "addr:housenumber": "6b", "addr:postcode": "51000", "addr:street": "Grivica", "amenity": "pub", "name": "Celtic caffe \"Bard\"", "opening_hours": "Mo-Sa 07:00-24:00; Su off", "opening_hours:covid19": "closed", "smoking": "yes", "rating": 2, "lat": "45.3276508", "lon": "14.4441398"}, {"addr:city": "Rijeka", "addr:country": "HR", "addr:housenumber": "28", "addr:postcode": "51000", "addr:street": "Korzo", "amenity": "theatre", "ele": "2", "name": "Filodrammatica", "operator": "Savez udruga Molekula", "website": "http://molekula.org", "rating": 2, "lat": "45.3274510", "lon": "14.4407475"}, {"addr:city": "Rijeka", "addr:country": "HR", "addr:housenumber": "30", "addr:postcode": "51000", "addr:street": "Korzo", "amenity": "cafe", "name": "Filodrammatica", "rating": 2, "lat": "45.3273911", "lon": "14.4407799"}, {"addr:housenumber": "2a", "addr:street": "\u0160etali\u0161te Joakima Rakovca", "amenity": "restaurant", "name": "Bistro Kalorija", "rating": 2, "lat": "45.3250883", "lon": "14.4594616"}, {"amenity": "taxi", "name": "\u017dabica", "rating": 2, "lat": "45.3275944", "lon": "14.4372152"}, {"amenity": "parking_entrance", "maxheight": "2.1", "parking": "underground", "source": "survey", "rating": 2, "lat": "45.3269522", "lon": "14.4463680"}, {"amenity": "cafe", "name": "cukariKafe", "website": "https://www.facebook.com/pages/Cukarikafe-Bar/125483697515402", "rating": 2, "lat": "45.3275100", "lon": "14.4432899"}, {"capacity": "35", "leisure": "marina", "seamark:harbour:category": "marina", "seamark:type": "harbour", "rating": 1, "lat": "45.3121364", "lon": "14.4746335"}, {"capacity": "35", "leisure": "marina", "seamark:harbour:category": "marina", "seamark:type": "harbour", "rating": 1, "lat": "45.3138622", "lon": "14.4705812"}, {"amenity": "theatre", "name": "Hrvatski kulturni dom na Su\u0161aku", "rating": 2, "lat": "45.3257725", "lon": "14.4509644"}, {"amenity": "nightclub", "name": "Stereo (club)", "rating": 2, "lat": "45.3259430", "lon": "14.4509332"}, {"name": "Hotel Neboder", "tourism": "hotel", "rating": 2, "lat": "45.3259621", "lon": "14.4507397"}, {"addr:city": "Rijeka", "addr:housenumber": "2", "addr:postcode": "51000", "addr:street": "Kru\u017ena ulica", "amenity": "nightclub", "name": "Palach", "rating": 2, "lat": "45.3281150", "lon": "14.4396937"}, {"historic": "ruins", "rating": 1, "lat": "45.3798019", "lon": "14.3335521"}, {"name": "Ford, Kranic auto", "shop": "car", "rating": 1, "lat": "45.3386800", "lon": "14.4289016"}, {"amenity": "ferry_terminal", "ferry": "yes", "name": "Rijeka", "public_transport": "stop_position", "rating": 2, "lat": "45.3236302", "lon": "14.4395145"}, {"alt_name": "Lujza", "amenity": "cafe", "name": "Luizijana", "rating": 2, "lat": "45.3329386", "lon": "14.4536061"}, {"amenity": "restaurant", "name": "Orjentovo ognji\u0161\u0107e", "rating": 2, "lat": "45.3237225", "lon": "14.4676228"}, {"amenity": "car_wash", "rating": 2, "lat": "45.3398841", "lon": "14.4163839"}, {"amenity": "cafe", "rating": 2, "lat": "45.3304179", "lon": "14.4594236"}, {"amenity": "cafe", "name": "Caffe Bar 64", "rating": 2, "lat": "45.3232236", "lon": "14.4671182"}, {"addr:housenumber": "2", "addr:street": "Ulica Bo\u017ee Milanovi\u0107a", "amenity": "restaurant", "name": "Istranka", "website": "https://restoran-istranka.eatbu.com", "rating": 2, "lat": "45.3381496", "lon": "14.3082717"}, {"name": "iNovine", "shop": "kiosk", "rating": 1, "lat": "45.3389785", "lon": "14.4027940"}, {"amenity": "atm", "rating": 2, "lat": "45.3405589", "lon": "14.3980632"}, {"addr:housenumber": "58", "addr:street": "Zametska", "amenity": "restaurant", "contact:email": "restaurant.kokolo@gmail.com", "cuisine": "pizza", "internet_access": "wlan", "name": "Kokolo", "opening_hours": "Su-Th 11:00-23:00; Fr-Sa 11:00-24:00", "rating": 2, "lat": "45.3416821", "lon": "14.3960629"}, {"amenity": "atm", "rating": 2, "lat": "45.3495161", "lon": "14.3887868"}, {"amenity": "atm", "rating": 2, "lat": "45.3515193", "lon": "14.3815858"}, {"amenity": "pharmacy", "name": "Ljukarna Bani\u0107", "rating": 2, "lat": "45.3389072", "lon": "14.4020496"}, {"amenity": "drinking_water", "rating": 2, "lat": "45.3387945", "lon": "14.4025338"}, {"addr:housenumber": "12", "addr:postcode": "51410", "addr:street": "Obala Frana Supila", "amenity": "restaurant", "cuisine": "croatian;fine_dining", "name": "Plavi podrum", "opening_hours": "Mo-Su 12:00-00:00", "operator": "Daniela Karamaric", "phone": "+3851701223", "website": "http://www.plavipodrum.com/", "wheelchair": "limited", "rating": 2, "lat": "45.3477762", "lon": "14.3201740"}, {"amenity": "restaurant", "name": "Kukuriku", "website": "https://www.kukuriku.hr/", "rating": 2, "lat": "45.3733986", "lon": "14.3480927"}, {"amenity": "atm", "rating": 2, "lat": "45.3301251", "lon": "14.4303703"}, {"addr:city": "Rijeka", "addr:housenumber": "4A", "addr:postcode": "51000", "addr:street": "Laginjina", "name": "Chipoteka", "opening_hours": "Mo-Fr 08:00-20:00; Su 08:00-13:00", "opening_hours:covid19": "closed", "place:suburb": "Belveder", "shop": "electronics", "rating": 1, "lat": "45.3305403", "lon": "14.4421502"}, {"addr:housenumber": "3", "addr:street": "Ulica \u0110ure \u0160porera", "amenity": "bank", "atm": "yes", "building": "yes", "name": "Privredna Banka Zagreb", "rating": 2, "lat": "45.3271684", "lon": "14.4446344"}, {"amenity": "cafe", "name": "Jadran", "rating": 2, "lat": "45.3640160", "lon": "14.3250389"}, {"amenity": "hospital", "healthcare": "hospital", "name": "Specijalna bolnica dr. Nemec", "website": "https://www.bolnica-nemec.hr/", "rating": 2, "lat": "45.3640563", "lon": "14.3134832"}, {"amenity": "atm", "brand": "PBZ", "rating": 2, "lat": "45.3636567", "lon": "14.3229467"}, {"amenity": "pharmacy", "rating": 2, "lat": "45.3639023", "lon": "14.3245749"}, {"ele": "499", "name": "Ple\u0161", "natural": "peak", "rating": 1, "lat": "45.3761319", "lon": "14.4292782"}, {"tourism": "viewpoint", "rating": 2, "lat": "45.3434048", "lon": "14.3050369"}, {"amenity": "shelter", "name": "vidikovac", "tourism": "viewpoint", "rating": 3, "lat": "45.3501719", "lon": "14.3113557"}, {"amenity": "fast_food", "brand": "McDonald's", "brand:wikidata": "Q38076", "brand:wikipedia": "en:McDonald's", "cuisine": "burger", "name": "McDonald's", "ref:vatin": "HR97492131626", "takeaway": "yes", "rating": 2, "lat": "45.3557246", "lon": "14.3524810"}, {"amenity": "shelter", "rating": 2, "lat": "45.3354855", "lon": "14.3090632"}, {"tourism": "viewpoint", "rating": 2, "lat": "45.3829918", "lon": "14.5517738"}, {"information": "map", "map_size": "site", "map_type": "topo", "name": "Karta parka", "name:en": "Map of park", "tourism": "information", "rating": 2, "lat": "45.3358820", "lon": "14.3102455"}, {"information": "map", "name": "Karta parka", "name:en": "Map of park", "tourism": "information", "rating": 2, "lat": "45.3357575", "lon": "14.3077108"}, {"addr:city": "Rijeka", "addr:country": "HR", "addr:housenumber": "21", "addr:postcode": "51000", "addr:street": "Dra\u017ei\u010dka", "email": "holex@hi.htnet.hr", "name": "Holex elektronika", "opening_hours": "Mo-Fr 08:00-12:00, 17:00-20:00; Sa 08:00-13:00", "phone": "0038551642548", "shop": "electronics", "website": "www.holex.hr", "rating": 1, "lat": "45.3490155", "lon": "14.3771724"}, {"access": "yes", "amenity": "parking", "fee": "yes", "parking": "underground", "rating": 2, "lat": "45.3446595", "lon": "14.3138824"}, {"information": "map", "name": "put za Veprinac", "tourism": "information", "rating": 2, "lat": "45.3348996", "lon": "14.2994601"}, {"amenity": "recycling", "rating": 2, "lat": "45.3383825", "lon": "14.3065426"}, {"amenity": "bench", "rating": 2, "lat": "45.3463599", "lon": "14.3074351"}, {"amenity": "bench", "rating": 2, "lat": "45.3413734", "lon": "14.3139118"}, {"amenity": "bench", "rating": 2, "lat": "45.3451868", "lon": "14.3064247"}, {"amenity": "parking", "rating": 2, "lat": "45.3455061", "lon": "14.3133295"}, {"amenity": "bench", "rating": 2, "lat": "45.3342845", "lon": "14.3027193"}, {"amenity": "bench", "name": "bench", "rating": 2, "lat": "45.3346169", "lon": "14.3022967"}, {"amenity": "bench", "rating": 2, "lat": "45.3350204", "lon": "14.3025502"}, {"amenity": "bench", "rating": 2, "lat": "45.3351316", "lon": "14.3023115"}, {"amenity": "bench", "rating": 2, "lat": "45.3347630", "lon": "14.3017362"}, {"amenity": "clinic", "healthcare": "clinic", "name": "Dom zdravlja Opatija", "rating": 2, "lat": "45.3341680", "lon": "14.3030072"}, {"information": "map", "name": "Karta Voloskog", "name:en": "Map of Volosko", "tourism": "information", "rating": 2, "lat": "45.3481740", "lon": "14.3203703"}, {"amenity": "drinking_water", "rating": 2, "lat": "45.3489081", "lon": "14.3198036"}, {"information": "map", "name": "Karta Voloskog", "name:en": "Map of Volosko", "tourism": "information", "rating": 2, "lat": "45.3479346", "lon": "14.3194151"}, {"leisure": "slipway", "rating": 1, "lat": "45.3474505", "lon": "14.3204181"}, {"amenity": "bench", "name": "bench", "rating": 2, "lat": "45.3318840", "lon": "14.2981085"}, {"natural": "tree", "species": "Arecaceae", "rating": 1, "lat": "45.3280646", "lon": "14.2985144"}, {"amenity": "shelter", "rating": 2, "lat": "45.3273138", "lon": "14.2984259"}, {"name": "Market", "shop": "supermarket", "rating": 1, "lat": "45.3453841", "lon": "14.3685995"}, {"amenity": "pub", "name": "Milord pub", "rating": 2, "lat": "45.3530770", "lon": "14.3654936"}, {"amenity": "parking", "rating": 2, "lat": "45.3455711", "lon": "14.3683071"}, {"amenity": "toilets", "opening_hours": "24/7", "rating": 2, "lat": "45.3551556", "lon": "14.3502463"}, {"amenity": "toilets", "opening_hours": "24/7", "rating": 2, "lat": "45.3556614", "lon": "14.3530091"}, {"amenity": "fuel", "fuel:cng": "yes", "name": "Energo CNG", "opening_hours": "24/7", "operator": "Energo d.o.o.", "source": "www.energo.hr, cng-croatia.eu", "rating": 2, "lat": "45.3362736", "lon": "14.4080366"}, {"name": "Konzum", "note": "uopce nije radilo u 20220409, i police izgledale prazne. kontaktiran Konzum", "opening_hours": "off", "shop": "convenience", "rating": 1, "lat": "45.3340790", "lon": "14.3054422"}, {"name": "Tisak", "opening_hours": "Mo-Sa 06:30-22:00; Su 07:00-21:00", "shop": "kiosk", "wheelchair": "yes", "rating": 1, "lat": "45.3335738", "lon": "14.3051852"}, {"name": "Pekarna Marini\u0107i", "shop": "bakery", "rating": 1, "lat": "45.3729252", "lon": "14.3487689"}, {"amenity": "dentist", "rating": 2, "lat": "45.3736302", "lon": "14.3486300"}, {"name": "Urban", "shop": "hairdresser", "rating": 1, "lat": "45.3738255", "lon": "14.3485841"}, {"amenity": "drinking_water", "rating": 2, "lat": "45.3734729", "lon": "14.3475224"}, {"amenity": "pub", "name": "Kastav pub", "rating": 2, "lat": "45.3729808", "lon": "14.3488923"}, {"addr:city": "Kastav", "addr:country": "HR", "addr:housenumber": "12a", "addr:postcode": "51215", "addr:street": "Trg Matka Laginje", "amenity": "post_office", "fax": "+385 51 525 818", "name": "51215 Kastav", "opening_hours": "Mo-Fr 07:00-20:00, Sa 07:00-14:00", "operator": "Hrvatska po\u0161ta", "operator:wikidata": "Q507289", "operator:wikipedia": "hr:Hrvatska po\u0161ta", "phone": "+385 51 525 817", "rating": 2, "lat": "45.3726754", "lon": "14.3490203"}, {"amenity": "cafe", "name": "Art caffe", "rating": 2, "lat": "45.3726682", "lon": "14.3487517"}, {"name": "Butiga Kastav", "shop": "greengrocer", "rating": 1, "lat": "45.3724513", "lon": "14.3492064"}, {"leisure": "playground", "rating": 1, "lat": "45.3723194", "lon": "14.3484203"}, {"addr:housenumber": "1", "addr:postcode": "51215", "addr:street": "Put va zagrad", "amenity": "cafe", "internet_access": "wlan", "name": "Guitar caffe", "opening_hours": "Mo-Su 06:30-01:00", "phone": "+38551691515", "website": "http://www.guitar-caffe.com", "rating": 2, "lat": "45.3727212", "lon": "14.3492971"}, {"amenity": "kindergarten", "name": "Dje\u010dji vrti\u0107 Vladimir Nazor", "rating": 2, "lat": "45.3720688", "lon": "14.3472509"}, {"amenity": "drinking_water", "rating": 2, "lat": "45.4203079", "lon": "14.3449401"}, {"access": "yes", "amenity": "parking", "fee": "yes", "parking": "multi-storey", "rating": 2, "lat": "45.3314103", "lon": "14.3017218"}, {"amenity": "restaurant", "delivery": "yes", "name": "Ru\u017emarin", "name:etymology:wikidata": "Q122679", "opening_hours": "Mo-Su 10:00-01:00", "phone": "+385 51 712 673", "takeaway": "yes", "website": "https://www.restaurant-ruzmarin.com", "rating": 2, "lat": "45.3324156", "lon": "14.3013159"}, {"addr:city": "Kastav", "addr:housenumber": "39a", "addr:postcode": "51215", "addr:street": "Spin\u010di\u0107i", "amenity": "fuel", "name": "Adria Oil", "ref:vatin": "HR03004159051", "rating": 2, "lat": "45.3730288", "lon": "14.3393277"}, {"addr:city": "Rijeka", "addr:housenumber": "4", "addr:postcode": "51000", "addr:street": "Karasova", "amenity": "kindergarten", "name": "Turni\u0107", "phone": "641-550", "website": "https://www.rivrtici.hr/cpo-turnic/", "rating": 2, "lat": "45.3407441", "lon": "14.4032461"}, {"building": "residential", "building:levels": "1", "source": "http://www.openstreetmap.org/?note=22367", "rating": 1.25, "lat": "45.3558648", "lon": "14.3204466"}, {"club": "sport", "name": "Parajedrili\u010darski klub Flumen", "office": "sport", "source": "http://www.pjkflumen.org", "sport": "paragliding", "website": "http://www.pjkflumen.org", "rating": 1, "lat": "45.3585350", "lon": "14.3884012"}, {"amenity": "fuel", "name": "Petrol", "rating": 2, "lat": "45.3607976", "lon": "14.3296260"}, {"tourism": "viewpoint", "rating": 2, "lat": "45.3090330", "lon": "14.5379999"}, {"amenity": "pharmacy", "rating": 2, "lat": "45.3302461", "lon": "14.4328945"}, {"name": "\u0160paro\u017ena jama", "natural": "cave_entrance", "rating": 1, "lat": "45.4079913", "lon": "14.3324957"}, {"natural": "cave_entrance", "rating": 1, "lat": "45.4094092", "lon": "14.3335060"}, {"natural": "cave_entrance", "rating": 1, "lat": "45.4095564", "lon": "14.3342929"}, {"addr:city": "Opatija", "addr:housenumber": "11", "addr:postcode": "51410", "addr:street": "Ulica Ive Kaline", "amenity": "restaurant", "name": "Restaurant Hotel Miramar", "takeaway": "no", "rating": 2, "lat": "45.3412921", "lon": "14.3132474"}, {"addr:housenumber": "38b", "addr:postcode": "51000", "addr:street": "Milice Jadrani\u0107", "name": "Tandem Paragliding", "office": "guide", "payment:bitcoin": "yes", "sport": "paragliding", "website": "http://www.paragliding-croatia.com/", "rating": 1, "lat": "45.3585388", "lon": "14.3884784"}, {"ele": "760", "name": "Mali Kamenjak", "natural": "peak", "rating": 1, "lat": "45.3736492", "lon": "14.5578294"}, {"amenity": "fuel", "name": "Petrol", "opening_hours": "24/7", "rating": 2, "lat": "45.3449243", "lon": "14.3983727"}, {"amenity": "pharmacy", "name": "Va\u0161e zdravlje", "rating": 2, "lat": "45.3325574", "lon": "14.3024214"}, {"amenity": "bank", "name": "Splitska banka", "rating": 2, "lat": "45.3374049", "lon": "14.3084773"}, {"amenity": "bank", "name": "PBZ", "rating": 2, "lat": "45.3339415", "lon": "14.3050174"}, {"name": "Bipa", "shop": "chemist", "rating": 1, "lat": "45.3347314", "lon": "14.3062695"}, {"amenity": "atm", "check_date": "2021-09-17", "name": "RBA", "rating": 2, "lat": "45.3347516", "lon": "14.3066520"}, {"addr:housenumber": "90/3", "addr:street": "Mar\u0161ala Tita", "amenity": "cafe", "name": "Cream caffe", "rating": 2, "lat": "45.3376291", "lon": "14.3082370"}, {"addr:city": "Kastav", "addr:housenumber": "3", "addr:postcode": "51215", "addr:street": "Ulica zakona kastafskega", "amenity": "townhall", "email": "info@kastav.hr", "fax": "+385 (0) 51 / 691-454", "name": "Grad Kastav", "phone": "+385 (0) 51 / 691-452;+385 (0) 51 / 688-201", "townhall:type": "town", "website": "https://kastav.hr", "rating": 2, "lat": "45.3735705", "lon": "14.3480852"}, {"name": "Stani\u0107", "shop": "convenience", "rating": 1, "lat": "45.3699763", "lon": "14.3380265"}, {"amenity": "bank", "name": "RBA", "rating": 2, "lat": "45.3644696", "lon": "14.3267585"}, {"addr:housenumber": "2/2", "addr:street": "Ulica Antona Raspora", "name": "Stani\u0107", "opening_hours": "Mo-Sa 08:00-19:00", "ref": "431", "ref:vatin": "HR50056415529", "shop": "convenience", "wheelchair": "limited", "rating": 1, "lat": "45.3225866", "lon": "14.2973550"}, {"name": "Kostanj", "natural": "beach", "toilets:wheelchair": "yes", "wheelchair": "yes", "rating": 1, "lat": "45.3501212", "lon": "14.3417646"}, {"amenity": "fuel", "name": "Petrol", "rating": 2, "lat": "45.3863824", "lon": "14.3137842"}, {"amenity": "bureau_de_change", "name": "currency exchange", "wheelchair": "yes", "rating": 2, "lat": "45.3326243", "lon": "14.3023407"}, {"amenity": "bureau_de_change", "name": "currency exchange", "rating": 2, "lat": "45.3386326", "lon": "14.3082109"}, {"alt_name": "Fontana Motta", "amenity": "fountain", "name": "Fontana Slatina", "rating": 2, "lat": "45.3326649", "lon": "14.3029152"}, {"artist": "Hans Rathausky", "artist:wikidata": "Q1682723", "artwork_type": "statue", "name": "Helij i Selena", "start_date": "1889", "subject:wikidata": "Q131585;Q134270", "tourism": "artwork", "wheelchair": "yes", "wikimedia_commons": "File:Hans_Rathausky_-_Helios_et_Selene.jpg", "rating": 2, "lat": "45.3341644", "lon": "14.3064064"}, {"addr:housenumber": "1", "addr:street": "Zadarska", "amenity": "courthouse", "name": "Zemlji\u0161no knji\u017eni odjel - Rijeka", "name:it": "Dipartimento del Catasto - Fiume", "opening_hours": "Mo,Th-Fr 08:00-11:45; Tu 15:00-19:45", "rating": 2, "lat": "45.3275446", "lon": "14.4381322"}, {"amenity": "drinking_water", "rating": 2, "lat": "45.3402696", "lon": "14.3977132"}, {"amenity": "restaurant", "name": "Pizzeria EX", "wheelchair": "no", "rating": 2, "lat": "45.3550529", "lon": "14.3690045"}, {"addr:city": "Rijeka", "addr:housenumber": "3", "addr:postcode": "51000", "addr:street": "Ulica Ante Modru\u0161ana", "name": "Srdo\u010di", "opening_hours": "Mo-Sa 06:00-21:00; Su 06:00-13:00", "opening_hours:covid19": "same", "payment:cash": "yes", "payment:coins": "yes", "payment:notes": "yes", "shop": "bakery", "rating": 1, "lat": "45.3537111", "lon": "14.3705272"}, {"amenity": "cafe", "rating": 2, "lat": "45.3532085", "lon": "14.3683166"}, {"amenity": "cafe", "name": "Discovery", "rating": 2, "lat": "45.3526816", "lon": "14.3734777"}, {"amenity": "bank", "name": "PBZ", "rating": 2, "lat": "45.3547402", "lon": "14.3691735"}, {"addr:city": "Rijeka", "addr:housenumber": "16", "addr:postcode": "51000", "addr:street": "Miroslava Krle\u017ee", "air_conditioning": "yes", "name": "Brodokomerc Nova", "opening_hours": "Mo-Sa 07:00-20:00; Su 07:00-12:00", "opening_hours:covid19": "same", "operator": "BRODOKOMERC NOVA d.o.o.", "payment:cash": "yes", "payment:credit_cards": "yes", "phone": "051 624 063", "shop": "convenience", "website": "www.brodokomerc.hr", "rating": 1, "lat": "45.3548368", "lon": "14.3694843"}, {"amenity": "atm", "indoor": "no", "name": "Erste", "rating": 2, "lat": "45.3547849", "lon": "14.3694345"}, {"amenity": "parking_entrance", "rating": 2, "lat": "45.3413951", "lon": "14.3731344"}, {"name": "Market Igor", "shop": "convenience", "rating": 1, "lat": "45.3570515", "lon": "14.3859253"}, {"brand": "PLUS", "brand:wikidata": "Q1978981", "brand:wikipedia": "nl:PLUS (Nederlandse supermarkt)", "name": "PLUS", "shop": "supermarket", "rating": 1, "lat": "45.3534811", "lon": "14.3908495"}, {"ele": "507", "name": "Ma\u010dkov vrh", "natural": "peak", "rating": 1, "lat": "45.4114424", "lon": "14.3401113"}, {"name": "Birota", "shop": "convenience", "rating": 1, "lat": "45.3537755", "lon": "14.3984765"}, {"name": "\u0160umci", "shop": "bakery", "rating": 1, "lat": "45.3519897", "lon": "14.3813697"}, {"name": "\u017eeljezarija", "shop": "hardware", "rating": 1, "lat": "45.3596820", "lon": "14.3963400"}, {"name": "Trgova\u010dka radnja Pehlin", "shop": "convenience", "rating": 1, "lat": "45.3504552", "lon": "14.4085313"}, {"amenity": "atm", "operator": "Erste", "rating": 2, "lat": "45.3542707", "lon": "14.4035766"}, {"name": "Birota", "shop": "convenience", "rating": 1, "lat": "45.3544103", "lon": "14.4034654"}, {"brand": "Mlinar", "brand:wikidata": "Q62082464", "name": "Mlinar", "shop": "bakery", "rating": 1, "lat": "45.3545349", "lon": "14.4033110"}, {"amenity": "cafe", "name": "Spin", "rating": 2, "lat": "45.3590672", "lon": "14.4002397"}, {"brand": "Mlinar", "brand:wikidata": "Q62082464", "name": "Mlinar", "opening_hours": "24/7", "shop": "bakery", "toilets:wheelchair": "no", "wheelchair": "yes", "rating": 1, "lat": "45.3279473", "lon": "14.4373888"}, {"name": "Market", "opening_hours": "24/7", "shop": "convenience", "rating": 1, "lat": "45.3281145", "lon": "14.4375183"}, {"addr:city": "Rijeka", "addr:housenumber": "9a", "addr:postcode": "51000", "addr:street": "Erazma Bar\u010di\u0107a", "amenity": "bar", "brewery": "yes;Klubsko_pivo;Heineken", "internet_access": "yes", "name": "Klub mladih Rijeka", "opening_hours:covid19": "closed", "rating": 2, "lat": "45.3289515", "lon": "14.4396146"}, {"amenity": "cafe", "name": "Dora", "rating": 2, "lat": "45.3629275", "lon": "14.3927387"}, {"shop": "convenience", "rating": 1, "lat": "45.3582704", "lon": "14.4021408"}, {"harbour": "yes", "maxspeed": "5 kn", "name": "Luka Rijeka", "name:en": "Port of Rijeka", "name:it": "Porto di Fiume", "natural": "bay", "source": "geoportal.dgu.hr: TK25 (Topografska karta 1:25000)", "vhf": "09", "wikidata": "Q1567835", "wikimedia_commons": "Category:Rijeka harbour", "rating": 1, "lat": "45.3272448", "lon": "14.4285408"}, {"name": "Su\u0161a\u010dka luka", "name:it": "Porto Baross", "natural": "bay", "old_name:it": "Porto Nazario Sauro", "source": "geoportal.dgu.hr: TK25 (Topografska karta 1:25000)", "rating": 1, "lat": "45.3225948", "lon": "14.4405164"}, {"name": "Piko", "shop": "convenience", "rating": 1, "lat": "45.3447281", "lon": "14.4150289"}, {"amenity": "cafe", "name": "Compar", "rating": 2, "lat": "45.3446916", "lon": "14.4150139"}, {"name": "Radnik Opatija", "shop": "convenience", "rating": 1, "lat": "45.3440689", "lon": "14.4146189"}, {"name": "Vinarija", "shop": "alcohol", "rating": 1, "lat": "45.3552387", "lon": "14.3689375"}, {"amenity": "pharmacy", "opening_hours": "Mo-Su 09:00-21:00", "rating": 2, "lat": "45.3378033", "lon": "14.4086524"}, {"amenity": "recycling", "name": "Recikla\u017eno dvori\u0161te", "recycling:batteries": "yes", "recycling:cans": "yes", "recycling:clothes": "yes", "recycling:glass": "yes", "recycling:paper": "yes", "recycling:scrap_metal": "yes", "rating": 2, "lat": "45.3503533", "lon": "14.4130224"}, {"name": "Sandy", "shop": "hairdresser", "rating": 1, "lat": "45.3446475", "lon": "14.4149899"}, {"amenity": "cafe", "name": "Stella", "rating": 2, "lat": "45.3594469", "lon": "14.3963643"}, {"amenity": "cafe", "name": "Nubar", "rating": 2, "lat": "45.3585593", "lon": "14.3980929"}, {"amenity": "pharmacy", "healthcare": "pharmacy", "rating": 2, "lat": "45.3600673", "lon": "14.3973255"}, {"amenity": "cafe", "name": "Press", "rating": 2, "lat": "45.3521396", "lon": "14.4286652"}, {"amenity": "cafe", "name": "Vertigo", "rating": 2, "lat": "45.3549221", "lon": "14.4281939"}, {"amenity": "car_wash", "name": "Froggy", "rating": 2, "lat": "45.3549480", "lon": "14.4279139"}, {"addr:city": "Rijeka", "addr:country": "HR", "addr:housenumber": "1", "addr:postcode": "51112", "addr:street": "Cvetkov trg", "amenity": "post_office", "fax": "051/525-930", "name": "51112 Rijeka", "opening_hours": "Mo-Fr 07:00-20:00", "operator": "Hrvatska po\u0161ta", "operator:wikidata": "Q507289", "operator:wikipedia": "hr:Hrvatska po\u0161ta", "phone": "051/525-929", "rating": 2, "lat": "45.3535563", "lon": "14.4318296"}, {"addr:city": "Rijeka", "addr:housenumber": "1", "addr:postcode": "51000", "addr:street": "Cvetkov trg", "amenity": "pharmacy", "healthcare": "pharmacy", "name": "Prima pharme", "opening_hours": "Mo-Fr 07:00-20:00; Sa 07:30-15:00", "rating": 2, "lat": "45.3534778", "lon": "14.4318988"}, {"amenity": "atm", "operator": "Erste", "rating": 2, "lat": "45.3537194", "lon": "14.4316177"}, {"amenity": "cafe", "name": "Dominus", "rating": 2, "lat": "45.3538035", "lon": "14.4315622"}, {"amenity": "fire_station", "name": "DVD Drenova", "rating": 2, "lat": "45.3536322", "lon": "14.4319439"}, {"amenity": "cafe", "name": "Grande", "rating": 2, "lat": "45.3483660", "lon": "14.4282176"}, {"amenity": "atm", "name": "Zaba", "rating": 2, "lat": "45.3440258", "lon": "14.3112009"}, {"amenity": "hospital", "healthcare": "hospital", "name": "Psihijatrijska bolnica Lopa\u010da", "website": "https://www.pbl.hr/", "rating": 2, "lat": "45.3779881", "lon": "14.4407669"}, {"historic": "memorial", "rating": 1, "lat": "45.3693280", "lon": "14.4311263"}, {"name": "Cadoro", "shop": "furniture", "rating": 1, "lat": "45.3529953", "lon": "14.4297193"}, {"name": "Brodokomerc", "shop": "convenience", "rating": 1, "lat": "45.3530969", "lon": "14.4297686"}, {"amenity": "fast_food", "name": "Grill cafe Adria", "opening_hours": "Mo-Su 07:00-24:00", "rating": 2, "lat": "45.3376510", "lon": "14.4312897"}, {"amenity": "cafe", "name": "Laguna", "rating": 2, "lat": "45.3566029", "lon": "14.4254431"}, {"name": "Dren", "shop": "bakery", "rating": 1, "lat": "45.3559940", "lon": "14.4265166"}, {"amenity": "cafe", "name": "Piano", "rating": 2, "lat": "45.3558818", "lon": "14.4264456"}, {"name": "Barbi", "shop": "convenience", "rating": 1, "lat": "45.3557675", "lon": "14.4263687"}, {"amenity": "fuel", "name": "Petrol", "opening_hours": "Mo-Su 05:00-24:00", "source": "survey 2014", "rating": 2, "lat": "45.3472368", "lon": "14.4294975"}, {"artist:wikidata": "Q12645869", "artist_name": "Zvonimir Kamenar", "artwork_type": "statue", "design:year": "1998", "historic": "memorial", "material": "gypsum", "memorial": "statue", "name": "Janko Poli\u0107 Kamov", "subject:wikidata": "Q1264816", "tourism": "artwork", "year_of_construction": "2000", "rating": 2, "lat": "45.3272742", "lon": "14.4485678"}, {"artist:wikidata": "Q1560831", "artist_name": "Ivan Ko\u017eari\u0107, Marko Ga\u0161pari\u0107", "artwork_type": "statue", "description": "On the Korzo, the main promenade, was placed the sculpture Hoda\u010d, an increased replica from 2001. of academician Ivan Ko\u017eari\u0107. The sculpture was made in 2011. by the academic sculptor Marko Ga\u0161pari\u0107.", "design:year": "2001", "material": "aluminum", "name": "Hoda\u010d", "tourism": "artwork", "wheelchair": "yes", "year_of_construction": "2011", "rating": 2, "lat": "45.3274735", "lon": "14.4402819"}, {"amenity": "cafe", "name": "Marta", "rating": 2, "lat": "45.3479020", "lon": "14.4206373"}, {"amenity": "atm", "name": "KBZ", "rating": 2, "lat": "45.3476625", "lon": "14.4198671"}, {"name": "Tisak", "shop": "kiosk", "rating": 1, "lat": "45.3478542", "lon": "14.4204980"}, {"name": "Tone", "shop": "convenience", "rating": 1, "lat": "45.3469095", "lon": "14.4328373"}, {"name": "\u0110ur\u0111ica", "shop": "hairdresser", "rating": 1, "lat": "45.3468702", "lon": "14.4329687"}, {"amenity": "restaurant", "name": "Buffet Amel", "rating": 2, "lat": "45.3478701", "lon": "14.4279203"}, {"name": "iNovine", "shop": "kiosk", "rating": 1, "lat": "45.3514631", "lon": "14.4207867"}, {"name": "Citroen Citropolis", "shop": "car_repair", "rating": 1, "lat": "45.3469650", "lon": "14.4442964"}, {"amenity": "post_box", "rating": 2, "lat": "45.3471488", "lon": "14.4202682"}, {"amenity": "cafe", "name": "Rio", "rating": 2, "lat": "45.3470711", "lon": "14.4201320"}, {"amenity": "cafe", "name": "Korner", "rating": 2, "lat": "45.3541612", "lon": "14.3661375"}, {"amenity": "bank", "name": "Hypo Adria bank", "rating": 2, "lat": "45.3541207", "lon": "14.3665362"}, {"amenity": "cafe", "name": "Aida", "rating": 2, "lat": "45.3540491", "lon": "14.3680981"}, {"amenity": "cafe", "name": "Rotary", "rating": 2, "lat": "45.3559075", "lon": "14.3671593"}, {"amenity": "cafe", "name": "Kala", "rating": 2, "lat": "45.3543620", "lon": "14.3692514"}, {"amenity": "restaurant", "name": "Raff", "rating": 2, "lat": "45.3543017", "lon": "14.3690422"}, {"amenity": "restaurant", "name": "Konoba Ive", "rating": 2, "lat": "45.3545429", "lon": "14.3698737"}, {"amenity": "pharmacy", "name": "Ljekarna Srdo\u010di", "rating": 2, "lat": "45.3558887", "lon": "14.3700937"}, {"name": "Auto cetar Pugeot Ku\u017eelka", "shop": "car", "rating": 1, "lat": "45.3529523", "lon": "14.3637476"}, {"amenity": "cafe", "name": "Na Igrali\u0161tu", "rating": 2, "lat": "45.3556749", "lon": "14.3732663"}, {"historic": "memorial", "rating": 1, "lat": "45.3547949", "lon": "14.3747344"}, {"club": "sports", "name": "Bo\u0107arski klub Srdo\u010di", "sport": "boules", "rating": 1, "lat": "45.3565291", "lon": "14.3732539"}, {"name": "Opel", "shop": "car", "rating": 1, "lat": "45.3544481", "lon": "14.3631649"}, {"addr:city": "Rijeka", "addr:country": "HR", "addr:housenumber": "65a", "addr:postcode": "51114", "addr:street": "Srdo\u010di", "amenity": "post_office", "fax": "+385 51 525 908", "name": "51114 Rijeka", "opening_hours": "Mo-Fr 07:00-20:00, Sa 07:00-14:00", "operator": "Hrvatska po\u0161ta", "operator:wikidata": "Q507289", "operator:wikipedia": "hr:Hrvatska po\u0161ta", "phone": "+385 51 525 909", "rating": 2, "lat": "45.3559755", "lon": "14.3668565"}, {"building": "industrial", "name": "Toplana Srdo\u010di", "rating": 1, "lat": "45.3553980", "lon": "14.3697327"}, {"natural": "spring", "rating": 1, "lat": "45.3656283", "lon": "14.3332987"}, {"amenity": "theatre", "name": "KUC Kalvarija", "rating": 2, "lat": "45.3288438", "lon": "14.4454702"}, {"addr:postcode": "51000", "amenity": "restaurant", "internet_access": "wlan", "name": "Gardens", "opening_hours": "Mo-Su 08:00-24:00", "toilets:wheelchair": "yes", "wheelchair": "yes", "rating": 2, "lat": "45.3260061", "lon": "14.4417076"}, {"amenity": "restaurant", "cuisine": "regional", "name": "Feral", "rating": 2, "lat": "45.3251167", "lon": "14.4449502"}, {"amenity": "library", "name": "Dje\u010dja knji\u017enica 'Beli kamik'", "rating": 2, "lat": "45.3299877", "lon": "14.4350471"}, {"name": "Antikvarijat", "shop": "books", "rating": 1, "lat": "45.3294352", "lon": "14.4370655"}, {"access": "yes", "amenity": "parking", "fee": "yes", "name": "Zagrad A", "parking": "multi-storey", "rating": 2, "lat": "45.3296218", "lon": "14.4393766"}, {"addr:city": "Rijeka", "addr:postcode": "51000", "addr:street": "Ivana Grohovca", "amenity": "bar", "name": "Tunel", "smoking": "yes", "rating": 2, "lat": "45.3288285", "lon": "14.4475169"}, {"historic": "memorial", "man_made": "flagpole", "name": "Stendarac", "wikimedia_commons": "File:Stendarac_Rijeka_140807.jpg", "rating": 1, "lat": "45.3274490", "lon": "14.4417763"}, {"amenity": "studio", "name": "Kanal Ri", "rating": 2, "lat": "45.3275735", "lon": "14.4419791"}, {"amenity": "restaurant", "cuisine": "regional", "name": "Na kantunu", "rating": 2, "lat": "45.3233137", "lon": "14.4441670"}, {"amenity": "restaurant", "cuisine": "regional", "name": "Buffet Fiume", "rating": 2, "lat": "45.3241361", "lon": "14.4423791"}, {"addr:city": "Rijeka", "addr:postcode": "51000", "addr:street": "Ivana Zajca", "amenity": "bar", "name": "Phanas pub", "rating": 2, "lat": "45.3253877", "lon": "14.4425789"}, {"amenity": "restaurant", "name": "Restoran Zlatni", "smoking": "yes", "rating": 2, "lat": "45.3562507", "lon": "14.3136570"}, {"amenity": "taxi", "rating": 2, "lat": "45.3255025", "lon": "14.4441680"}, {"name": "Rt Molnari\u0107", "natural": "cape", "rating": 1, "lat": "45.2777640", "lon": "14.5527953"}, {"name": "Rt \u0160krkovac", "natural": "cape", "source": "DGU-TK25", "rating": 1, "lat": "45.2778284", "lon": "14.5420765"}, {"name": "Rt Podurinj", "natural": "cape", "source": "DGU-TK25", "rating": 1, "lat": "45.2842383", "lon": "14.5229355"}, {"building": "yes", "rating": 1, "lat": "45.3746228", "lon": "14.3934838"}, {"building": "yes", "rating": 1, "lat": "45.3736128", "lon": "14.3952541"}, {"building": "yes", "rating": 1, "lat": "45.3736204", "lon": "14.3956511"}, {"building": "yes", "rating": 1, "lat": "45.3738239", "lon": "14.3950932"}, {"building": "yes", "rating": 1, "lat": "45.3738842", "lon": "14.3955330"}, {"building": "yes", "rating": 1, "lat": "45.3744494", "lon": "14.3935911"}, {"building": "yes", "rating": 1, "lat": "45.3747584", "lon": "14.3933766"}, {"building": "yes", "rating": 1, "lat": "45.3749092", "lon": "14.3932371"}, {"amenity": "ferry_terminal", "ferry": "yes", "name": "12", "public_transport": "station", "wheelchair": "yes", "rating": 2, "lat": "43.5044401", "lon": "16.4400398"}, {"name": "Bike Shop Experience", "shop": "bicycle", "rating": 1, "lat": "45.3660317", "lon": "14.3324142"}, {"leisure": "playground", "rating": 1, "lat": "45.3492280", "lon": "14.3753637"}, {"artist:wikidata": "Q3464579", "historic": "monument", "monument_type": "sculpture", "name": "Podhumskim \u017ertvama", "name:de": "Mahnmal f\u00fcr die Opfer des Faschismus von Podhum", "name:en": "Monument to victims of fascism from Podhum", "name:fr": "M\u00e9morial aux victimes du fascisme de Podhum", "name:nl": "Monument voor de slachtoffers van fascisme uit Podhum", "start_date": "1970", "wikipedia": "hr:Dodatak:Popis Podhumskih \u017ertava", "rating": 1, "lat": "45.3755438", "lon": "14.4971783"}, {"amenity": "doctors", "emergency": "no", "healthcare": "doctor", "name": "Dom zdravlja Matulji", "rating": 2, "lat": "45.3644867", "lon": "14.3147194"}, {"amenity": "fuel", "name": "Benzinska crpka \"Trade Filtom\"", "rating": 2, "lat": "45.3742575", "lon": "14.3867398"}, {"ele": "464.8", "name": "Stani\u0107", "natural": "peak", "rating": 1, "lat": "45.4013169", "lon": "14.3282576"}, {"amenity": "parking", "rating": 2, "lat": "45.3528639", "lon": "14.3209823"}, {"amenity": "parking", "rating": 2, "lat": "45.3535621", "lon": "14.3236076"}, {"amenity": "shower", "fee": "no", "rating": 2, "lat": "45.3452712", "lon": "14.3542878"}, {"natural": "tree", "rating": 1, "lat": "45.3496310", "lon": "14.3133555"}, {"artist_name": "Akademija primijenjenih umjetnosti", "artwork_type": "sculpture", "name": "Nikol", "tourism": "artwork", "rating": 2, "lat": "45.3269862", "lon": "14.4659234"}, {"addr:city": "Rijeka", "addr:housenumber": "3a", "addr:postcode": "51000", "addr:street": "Frana Kurelca", "amenity": "pub", "internet_access": "wlan", "name": "King's Caffe", "opening_hours": "06:00-02:00", "smoking": "yes", "rating": 2, "lat": "45.3286247", "lon": "14.4408641"}, {"addr:city": "Bakar", "addr:housenumber": "128", "addr:postcode": "51222", "addr:street": "Primorje", "amenity": "restaurant", "cuisine": "italian", "name": "Vallis", "opening_hours": "08:00 - 24:00", "rating": 2, "lat": "45.3072514", "lon": "14.5367706"}, {"addr:city": "Bakar", "addr:housenumber": "39", "addr:postcode": "51222", "addr:street": "Ulica Primorje", "information": "office", "name": "Turisti\u010dka zajednica", "name:it": "Ufficio turistico", "operator": "Grad Bakar", "tourism": "information", "rating": 2, "lat": "45.3057622", "lon": "14.5351686"}, {"denomination": "roman_catholic", "historic": "wayside_shrine", "religion": "christian", "rating": 1, "lat": "45.3111473", "lon": "14.5264320"}, {"shop": "bakery", "rating": 1, "lat": "45.3069825", "lon": "14.5388478"}, {"shop": "kiosk", "rating": 1, "lat": "45.3071593", "lon": "14.5380160"}, {"addr:housenumber": "125", "addr:street": "Primorje", "name": "Gavranovi\u0107", "shop": "convenience", "rating": 1, "lat": "45.3073164", "lon": "14.5364794"}, {"amenity": "cafe", "name": "Nautica", "rating": 2, "lat": "45.3073191", "lon": "14.5362131"}, {"name": "Galerija Bakar", "shop": "art", "rating": 1, "lat": "45.3067793", "lon": "14.5355298"}, {"amenity": "cafe", "internet_access": "wlan", "name": "Kavana Continental", "rating": 2, "lat": "45.3377091", "lon": "14.3087251"}, {"amenity": "restaurant", "cuisine": "pizza", "name": "Osteria", "rating": 2, "lat": "45.3378509", "lon": "14.3088520"}, {"amenity": "kindergarten", "name": "Vrti\u0107 Opatija", "rating": 2, "lat": "45.3399402", "lon": "14.3092332"}, {"name": "Forum", "shop": "paint", "rating": 1, "lat": "45.3616826", "lon": "14.3174835"}, {"addr:city": "Rijeka", "addr:country": "HR", "addr:housenumber": "4", "addr:postcode": "51000", "addr:street": "Uljarska ulica", "amenity": "bank", "bic": "HPBZHR2X", "brand": "Hrvatska po\u0161tanska banka", "brand:wikidata": "Q5923981", "brand:wikipedia": "en:Hrvatska po\u0161tanska banka", "contact:fax": "+385 51 555 589", "contact:phone": "+385 51 555 571", "name": "Hrvatska po\u0161tanska banka", "opening_hours": "Mo-Fr 08:00-19:00; Sa 08:00-12:00", "rating": 2, "lat": "45.3254135", "lon": "14.4433454"}, {"amenity": "atm", "brand": "Hrvatska po\u0161tanska banka", "brand:wikidata": "Q5923981", "brand:wikipedia": "en:Hrvatska po\u0161tanska banka", "name": "Hrvatska po\u0161tanska banka", "operator": "Hrvatska po\u0161tanska banka", "operator:wikidata": "Q5923981", "operator:wikipedia": "en:Hrvatska po\u0161tanska banka", "rating": 2, "lat": "45.3254187", "lon": "14.4432573"}, {"addr:city": "Rijeka", "addr:country": "HR", "addr:housenumber": "13", "addr:postcode": "51000", "addr:street": "Korzo", "amenity": "bank", "atm": "yes", "bic": "HPBZHR2X", "brand": "Hrvatska po\u0161tanska banka", "brand:wikidata": "Q5923981", "brand:wikipedia": "en:Hrvatska po\u0161tanska banka", "contact:fax": "+385 51 301 288", "contact:phone": "+385 51 301 280", "name": "Hrvatska po\u0161tanska banka", "opening_hours": "Mo-Fr 08:00-19:00; Sa 08:00-12:00", "rating": 2, "lat": "45.3265294", "lon": "14.4425032"}, {"addr:city": "Rijeka", "addr:housenumber": "17", "addr:postcode": "51000", "addr:street": "Bra\u0107e Cetina", "name": "Frizerski salon Dessardo", "shop": "hairdresser", "rating": 1, "lat": "45.3423541", "lon": "14.3822508"}, {"addr:city": "Rijeka", "addr:country": "HR", "addr:housenumber": "25", "addr:postcode": "51000", "addr:street": "Pomerio", "name": "Kemijska \u010distionica \"Perla\"", "shop": "laundry", "rating": 1, "lat": "45.3301434", "lon": "14.4375915"}, {"addr:city": "Rijeka", "addr:country": "HR", "addr:housenumber": "29", "addr:postcode": "51000", "addr:street": "Pomerio", "email": "info@rijekabooking.com", "internet_access": "wlan", "internet_access:fee": "no", "name": "Apartments Pomerio Rijeka", "operator": "Private", "phone": "+385913311580", "rooms": "5", "tourism": "apartment", "website": "https://rijekabooking.com", "rating": 2, "lat": "45.3300551", "lon": "14.4368798"}, {"artist": "Zvonko Car", "artist:wikidata": "Q12645883", "artwork_type": "statue", "name": "Hygia", "subject:wikidata": "Q202257", "tourism": "artwork", "wikimedia_commons": "File:Hygia_Z_Car_051007.jpg", "rating": 2, "lat": "45.3316670", "lon": "14.4271831"}, {"addr:housenumber": "3b", "addr:street": "Riva Boduli", "name": "Antikvarijat ExLibris", "shop": "supermarket", "rating": 1, "lat": "45.3249295", "lon": "14.4418394"}, {"amenity": "atm", "brand": "PBZ", "brand:wikidata": "Q7246343", "brand:wikipedia": "en:Privredna banka Zagreb", "name": "PBZ", "operator": "PBZ", "operator:wikidata": "Q7246343", "operator:wikipedia": "en:Privredna banka Zagreb", "rating": 2, "lat": "45.3267318", "lon": "14.4453564"}, {"addr:city": "Rijeka", "addr:postcode": "51000", "addr:street": "Adami\u0107ev gat", "amenity": "pub", "name": "Guverova pivska paluba", "phone": "+385 98 258 220", "rating": 2, "lat": "45.3263845", "lon": "14.4391076"}, {"addr:city": "Rijeka", "addr:housenumber": "40", "addr:postcode": "51000", "addr:street": "Korzo", "amenity": "community_centre", "email": "pdkamenjak@gmail.com", "name": "Planinarsko dru\u0161tvo \"Kamenjak\" Rijeka", "name:en": "Mountaineering club \"Kamenjak Rijeka\"", "phone": "+385 51 331 212", "website": "http://pd-kamenjak.hr/", "wheelchair": "no", "rating": 2, "lat": "45.3277210", "lon": "14.4395696"}, {"addr:city": "Rijeka", "addr:postcode": "51000", "addr:street": "Ivana Grohovca", "name": "\"Peek & Poke\" old computers museum", "opening_hours": "Mo-Fr 10:00-18:00; Sa 11:00-16:00", "tourism": "museum", "wikidata": "Q12639159", "wikipedia": "hr:PEEK&POKE", "rating": 2, "lat": "45.3281115", "lon": "14.4452605"}, {"amenity": "cafe", "name": "Caffe bar \"Gradina\"", "rating": 2, "lat": "45.3324778", "lon": "14.4556713"}, {"addr:city": "Rijeka", "addr:postcode": "51000", "amenity": "fast_food", "cuisine": "burger", "name": "Food City", "operator": "Food City", "smoking": "no", "rating": 2, "lat": "45.3257917", "lon": "14.4443545"}, {"historic": "memorial", "rating": 1, "lat": "45.3211217", "lon": "14.5346216"}, {"addr:city": "\u0160krljevo", "addr:housenumber": "386", "addr:postcode": "51223", "addr:street": "Kukuljanovo", "amenity": "fuel", "name": "Adria Oil", "ref:vatin": "HR03004159051", "rating": 2, "lat": "45.3294205", "lon": "14.5092314"}, {"amenity": "waste_basket", "rating": 2, "lat": "45.3227448", "lon": "14.2989700"}, {"amenity": "shower", "rating": 2, "lat": "45.3289451", "lon": "14.3015842"}, {"historic": "memorial", "memorial": "plaque", "name": "J\u00f3zef Pi\u0142sudski", "subject:wikidata": "Q885", "wheelchair": "yes", "rating": 1, "lat": "45.3337354", "lon": "14.3061220"}, {"artist:wikidata": "Q16110914", "artwork_type": "sculpture", "name": "Kameni obluci", "tourism": "artwork", "wheelchair": "yes", "rating": 2, "lat": "45.3336579", "lon": "14.3067908"}, {"amenity": "bench", "rating": 2, "lat": "45.3341884", "lon": "14.3064683"}, {"amenity": "bench", "rating": 2, "lat": "45.3341169", "lon": "14.3063776"}, {"artist": "Vojin Baki\u0107", "artist:wikidata": "Q566790", "artwork_type": "sculpture", "tourism": "artwork", "wheelchair": "yes", "rating": 2, "lat": "45.3334942", "lon": "14.3051642"}, {"artist:wikidata": "Q5334062", "artwork_type": "statue", "historic": "memorial", "memorial": "statue", "name": "Miroslav Krle\u017ea", "tourism": "artwork", "wheelchair": "yes", "rating": 2, "lat": "45.3335413", "lon": "14.3055303"}, {"artist": "Tatjana Kostanjevi\u0107", "artwork_type": "statue", "name": "Barkajol", "tourism": "artwork", "wheelchair": "yes", "rating": 2, "lat": "45.3337619", "lon": "14.3065709"}, {"artwork_type": "statue", "name": "Bla\u017eena Djevica Marija", "subject:wikidata": "Q345", "tourism": "artwork", "wheelchair": "yes", "rating": 2, "lat": "45.3343214", "lon": "14.3072068"}, {"amenity": "bench", "rating": 2, "lat": "45.3342155", "lon": "14.3064413"}, {"amenity": "bicycle_rental", "name": "Alpi", "rating": 2, "lat": "45.3339379", "lon": "14.3051538"}, {"information": "map", "name": "Karta parka", "name:en": "Map of park", "tourism": "information", "rating": 2, "lat": "45.3343369", "lon": "14.3062116"}, {"amenity": "cafe", "name": "Hotel Mozart", "wheelchair": "limited", "rating": 2, "lat": "45.3335092", "lon": "14.3050809"}, {"amenity": "parking_entrance", "rating": 2, "lat": "45.3341739", "lon": "14.3059360"}, {"artwork_type": "sculpture", "tourism": "artwork", "wheelchair": "yes", "rating": 2, "lat": "45.3295741", "lon": "14.3018691"}, {"amenity": "toilets", "check_date": "2021-08-20", "unisex": "yes", "rating": 2, "lat": "45.3284371", "lon": "14.4373625"}, {"access": "yes", "amenity": "toilets", "fee": "yes", "toilets:disposal": "flush", "unisex": "yes", "wheelchair": "yes", "rating": 2, "lat": "45.3278366", "lon": "14.4373322"}, {"name": "\u017dabica", "operator": "Autotrans", "shop": "ticket", "rating": 1, "lat": "45.3277234", "lon": "14.4372455"}, {"amenity": "cafe", "name": "\u0160triga", "rating": 2, "lat": "45.3273056", "lon": "14.4481030"}, {"amenity": "fast_food", "cuisine": "burger", "delivery": "no", "drive_through": "no", "name": "Buddy's Fast Food", "rating": 2, "lat": "45.3273192", "lon": "14.4486848"}, {"amenity": "shower", "fee": "yes", "rating": 2, "lat": "45.3328313", "lon": "14.3042302"}, {"artist_name": "Andrej Savi - Sferico", "artwork_type": "sculpture", "inscription": "Opatiji poklanja obitelj \u017du\u017ei Jelinek, 2011", "name": "Obitelj", "start_date": "2011", "tourism": "artwork", "rating": 2, "lat": "45.3332417", "lon": "14.3041346"}, {"amenity": "bench", "rating": 2, "lat": "45.3201722", "lon": "14.2974033"}, {"amenity": "ferry_terminal", "name": "Taxi boat Kristal 9", "wheelchair": "no", "rating": 2, "lat": "45.3283911", "lon": "14.3015429"}, {"amenity": "ferry_terminal", "name": "Taxi boat Opatija 5", "rating": 2, "lat": "45.3282356", "lon": "14.3014331"}, {"amenity": "bench", "rating": 2, "lat": "45.3284817", "lon": "14.3013446"}, {"amenity": "bench", "rating": 2, "lat": "45.3284374", "lon": "14.3012695"}, {"amenity": "ferry_terminal", "name": "Taxi boat", "rating": 2, "lat": "45.3335547", "lon": "14.3063513"}, {"name": "Tommy", "opening_hours": "Mo-Su 07:00-21:00", "shop": "supermarket", "rating": 1, "lat": "45.3313453", "lon": "14.3015289"}, {"name": "Auto gume", "shop": "car_repair", "rating": 1, "lat": "45.3310211", "lon": "14.3011954"}, {"amenity": "restaurant", "name": "Pizzeria Forno", "rating": 2, "lat": "45.3306815", "lon": "14.3023562"}, {"historic": "memorial", "memorial_type": "plaque", "name": "M\u00f3ra Ferenc", "subject:wikidata": "Q774280", "rating": 1, "lat": "45.3306868", "lon": "14.3018542"}, {"amenity": "cafe", "name": "Caffe bar Madona", "wheelchair": "yes", "rating": 2, "lat": "45.3297717", "lon": "14.3019717"}, {"amenity": "atm", "name": "Erste", "operator": "Erste Bank Croatia", "rating": 2, "lat": "45.3312549", "lon": "14.3015208"}, {"amenity": "restaurant", "name": "Lavanda", "website": "http://hotel-galeb.hr/en/restaurant.html", "wheelchair": "no", "rating": 2, "lat": "45.3310241", "lon": "14.3021328"}, {"amenity": "restaurant", "name": "Lungo mare", "rating": 2, "lat": "45.3304702", "lon": "14.3020342"}, {"addr:city": "Rijeka", "addr:housenumber": "1a", "addr:postcode": "51000", "addr:street": "Braj\u0161ina", "name": "Mesnica Belveder", "shop": "butcher", "rating": 1, "lat": "45.3324706", "lon": "14.4410529"}, {"artwork_type": "bust", "historic": "memorial", "memorial": "bust", "name": "\u010cehov", "subject:wikidata": "Q5685", "tourism": "artwork", "wheelchair": "yes", "rating": 2, "lat": "45.3349455", "lon": "14.3082482"}, {"historic": "memorial", "memorial": "plaque", "name": "Theodor Billroth", "subject:wikidata": "Q77242", "rating": 1, "lat": "45.3339568", "lon": "14.3073936"}, {"artwork_type": "statue", "historic": "memorial", "inscription": "Snaga predod\u017ebe daje stvarima \u017eivot", "memorial": "statue", "name": "Isadora Duncan", "subject:wikidata": "Q483512", "tourism": "artwork", "wheelchair": "yes", "rating": 2, "lat": "45.3353103", "lon": "14.3084528"}, {"artist:wikidata": "Q1682723", "artwork_type": "bust", "historic": "memorial", "memorial": "bust", "name": "Fried Julius Sch\u00fcler", "subject:wikidata": "Q1460125", "tourism": "artwork", "rating": 2, "lat": "45.3364093", "lon": "14.3093019"}, {"amenity": "bench", "rating": 2, "lat": "45.3365929", "lon": "14.3090109"}, {"name": "\u0160vicarska ku\u0107a", "name:en": "Swiss House", "tourism": "museum", "rating": 2, "lat": "45.3361982", "lon": "14.3087973"}, {"amenity": "atm", "name": "Splitska banka", "rating": 2, "lat": "45.3374199", "lon": "14.3084852"}, {"name": "Kozgar", "shop": "jewelry", "rating": 1, "lat": "45.3380263", "lon": "14.3090346"}, {"name": "Lidija", "shop": "florist", "rating": 1, "lat": "45.3385894", "lon": "14.3089917"}, {"name": "Glasnovi\u0107", "shop": "jewelry", "rating": 1, "lat": "45.3382177", "lon": "14.3089229"}, {"amenity": "cafe", "name": "Bonbonni\u00e9re Kra\u0161", "rating": 2, "lat": "45.3374142", "lon": "14.3080667"}, {"amenity": "bureau_de_change", "name": "Fina", "rating": 2, "lat": "45.3375240", "lon": "14.3085545"}, {"amenity": "fast_food", "cuisine": "barbecue", "name": "Buco", "rating": 2, "lat": "45.3387282", "lon": "14.3086818"}, {"amenity": "pharmacy", "name": "Primapharme", "rating": 2, "lat": "45.3383263", "lon": "14.3092258"}, {"amenity": "pharmacy", "name": "Adiva", "opening_hours": "Mo-Fr 07:00-21:00;Sa 08:00-18:00;Su 08:00-12:00", "rating": 2, "lat": "45.3363542", "lon": "14.3078737"}, {"amenity": "bench", "rating": 2, "lat": "45.3361832", "lon": "14.3093147"}, {"artwork_type": "bust", "historic": "memorial", "memorial": "bust", "name": "Ivan Mateti\u0107 Ronjgov", "subject:wikidata": "Q2594917", "tourism": "artwork", "wheelchair": "yes", "rating": 2, "lat": "45.3355871", "lon": "14.3088913"}, {"artist": "Tatjana Kostanjevi\u0107", "artwork_type": "statue", "historic": "memorial", "memorial": "statue", "name": "Jan Kubelik", "start_date": "2007", "subject:wikidata": "Q360863", "tourism": "artwork", "wheelchair": "yes", "rating": 2, "lat": "45.3354598", "lon": "14.3090570"}, {"amenity": "bench", "rating": 2, "lat": "45.3359862", "lon": "14.3094426"}, {"name": "Tisak", "shop": "kiosk", "rating": 1, "lat": "45.3321682", "lon": "14.3029473"}, {"artwork_type": "bust", "historic": "memorial", "memorial": "bust", "name": "Ivan Mateti\u0107 Ronjgov", "subject:wikidata": "Q2594917", "tourism": "artwork", "rating": 2, "lat": "45.3721555", "lon": "14.3492374"}, {"artwork_type": "bust", "historic": "memorial", "memorial": "bust", "name": "Vladimir Nazor", "subject:wikidata": "Q380529", "tourism": "artwork", "rating": 2, "lat": "45.3720763", "lon": "14.3493587"}, {"artwork_type": "bust", "historic": "memorial", "memorial": "bust", "name": "Matko Laginja", "subject:wikidata": "Q1965442", "tourism": "artwork", "rating": 2, "lat": "45.3722140", "lon": "14.3491745"}, {"artwork_type": "bust", "historic": "memorial", "memorial": "bust", "name": "Vjekoslav Spin\u010di\u0107", "subject:wikidata": "Q7938117", "tourism": "artwork", "rating": 2, "lat": "45.3722440", "lon": "14.3491483"}, {"artwork_type": "bust", "historic": "memorial", "memorial": "bust", "name": "Matko Mandi\u0107", "subject:wikidata": "Q1908883", "tourism": "artwork", "rating": 2, "lat": "45.3721865", "lon": "14.3492047"}, {"ele": "497", "name": "Prohodski breg", "natural": "peak", "rating": 1, "lat": "45.4198412", "lon": "14.3244772"}, {"name": "KiK", "shop": "clothes", "rating": 1, "lat": "45.3313033", "lon": "14.3016320"}, {"artist": "Vinko Matkovi\u0107", "artwork_type": "statue", "historic": "memorial", "loc_name": "Kastavski partizan", "memorial": "statue", "name": "Palima u oslobodila\u010dkom ratu", "note": "Prolazni\u010de! Pogledaj more, planinu, kamenje. Ku\u0107ice i u njima ljude\u2026 Ovdje se rodila misao otpora: \u2018Na kamenu \u2013 za kamen", "start_date": "1963", "tourism": "artwork", "rating": 2, "lat": "45.3630416", "lon": "14.3424359"}, {"amenity": "bank", "atm": "yes", "name": "Erste Bank", "rating": 2, "lat": "45.3117806", "lon": "14.5517036"}, {"addr:city": "Rijeka", "addr:country": "HR", "addr:housenumber": "15c", "addr:postcode": "51103", "addr:street": "Strossmayerova ulica", "amenity": "post_office", "fax": "+385 51 371 038", "name": "51103 Rijeka", "opening_hours": "Mo-Fr 09:00-16:00", "operator": "Hrvatska po\u0161ta", "operator:wikidata": "Q507289", "operator:wikipedia": "hr:Hrvatska po\u0161ta", "phone": "+385 51 371 149", "rating": 2, "lat": "45.3249008", "lon": "14.4531290"}, {"addr:city": "Rijeka", "addr:country": "HR", "addr:housenumber": "38", "addr:postcode": "51104", "addr:street": "Laginjina", "amenity": "post_office", "fax": "+385 51 525 906", "name": "51104 Rijeka", "opening_hours": "Mo-Fr 07:00-20:00", "operator": "Hrvatska po\u0161ta", "operator:wikidata": "Q507289", "operator:wikipedia": "hr:Hrvatska po\u0161ta", "phone": "+385 51 525 907", "rating": 2, "lat": "45.3326188", "lon": "14.4392517"}, {"addr:city": "Rijeka", "addr:country": "HR", "addr:housenumber": "27b", "addr:postcode": "51105", "addr:street": "Pulska", "amenity": "post_office", "fax": "+385 51 525 922", "name": "51105 Rijeka", "opening_hours": "Mo-Fr 09:00-16:00", "operator": "Hrvatska po\u0161ta", "operator:wikidata": "Q507289", "operator:wikipedia": "hr:Hrvatska po\u0161ta", "phone": "+385 51 525 921", "rating": 2, "lat": "45.3382754", "lon": "14.3839433"}, {"addr:city": "Rijeka", "addr:country": "HR", "addr:housenumber": "13a", "addr:postcode": "51107", "addr:street": "Fiumara", "amenity": "post_office", "fax": "+385 51 525 965", "name": "51107 Rijeka", "opening_hours": "Mo-Fr 08:00-19:00, Sun 08:00-13:00", "operator": "Hrvatska po\u0161ta", "operator:wikidata": "Q507289", "operator:wikipedia": "hr:Hrvatska po\u0161ta", "phone": "+385 72 303 304", "rating": 2, "lat": "45.3265408", "lon": "14.4467102"}, {"amenity": "post_office", "fax": "+385 51 525 926", "name": "51108 Rijeka", "opening_hours": "Mo-Fr 07:00-20:00, Sa 07:00-14:00", "operator": "Hrvatska po\u0161ta", "phone": "+385 51 525 925", "rating": 2, "lat": "45.3402977", "lon": "14.4096247"}, {"addr:city": "Rijeka", "addr:country": "HR", "addr:housenumber": "2a", "addr:postcode": "51109", "addr:street": "A. Peru\u010da", "amenity": "post_office", "fax": "+385 51 525 928", "name": "51109 Rijeka", "opening_hours": "Mo-Fr 07:00-20:00", "operator": "Hrvatska po\u0161ta", "operator:wikidata": "Q507289", "operator:wikipedia": "hr:Hrvatska po\u0161ta", "phone": "+385 51 525 927", "rating": 2, "lat": "45.3202563", "lon": "14.4755375"}, {"addr:city": "Rijeka", "addr:country": "HR", "addr:housenumber": "3", "addr:postcode": "51111", "addr:street": "Bra\u0107e Stip\u010di\u0107", "amenity": "post_office", "fax": "+385 51 412 140", "name": "51111 Rijeka", "opening_hours": "Mo-Fr 07:00-20:00", "operator": "Hrvatska po\u0161ta", "operator:wikidata": "Q507289", "operator:wikipedia": "hr:Hrvatska po\u0161ta", "phone": "+385 51 412 138", "rating": 2, "lat": "45.3226401", "lon": "14.4789628"}, {"addr:city": "Rijeka", "addr:country": "HR", "addr:housenumber": "84", "addr:postcode": "51115", "addr:street": "Vukovarska", "amenity": "post_office", "fax": "+385 51 672 987", "name": "51115 Rijeka", "opening_hours": "Mo-Fr 09:00-16:00", "operator": "Hrvatska po\u0161ta", "operator:wikidata": "Q507289", "operator:wikipedia": "hr:Hrvatska po\u0161ta", "phone": "+385 51 672 886", "rating": 2, "lat": "45.3395809", "lon": "14.4197836"}, {"addr:city": "Rijeka", "addr:country": "HR", "addr:housenumber": "1a", "addr:postcode": "51116", "addr:street": "Rudolfa Tom\u0161i\u0107a", "amenity": "post_office", "fax": "+385 51 676 656", "name": "51116 Rijeka", "opening_hours": "Mo-Fr 09:00-16:00", "operator": "Hrvatska po\u0161ta", "operator:wikidata": "Q507289", "operator:wikipedia": "hr:Hrvatska po\u0161ta", "phone": "+385 51 676 653", "rating": 2, "lat": "45.3358503", "lon": "14.4276763"}, {"addr:city": "Rijeka", "addr:country": "HR", "addr:housenumber": "67a", "addr:postcode": "51118", "addr:street": "Osje\u010dka", "amenity": "post_office", "fax": "+385 51 525 932", "name": "51118 Rijeka", "opening_hours": "Mo-Sa 08:00-21:00, Su 08:00-14:00", "operator": "Hrvatska po\u0161ta", "operator:wikidata": "Q507289", "operator:wikipedia": "hr:Hrvatska po\u0161ta", "phone": "+385 51 525 931", "rating": 2, "lat": "45.3469061", "lon": "14.4205208"}, {"addr:city": "Matulji", "addr:country": "HR", "addr:housenumber": "8", "addr:postcode": "51211", "addr:street": "Trg mar\u0161ala Tita", "amenity": "post_office", "fax": "+385 51 525 815", "name": "51211 Matulji", "opening_hours": "Mo-Fr 07:00-20:00, Sa 07:00-14:00", "operator": "Hrvatska po\u0161ta", "operator:wikidata": "Q507289", "operator:wikipedia": "hr:Hrvatska po\u0161ta", "phone": "+385 51 525 816", "rating": 2, "lat": "45.3639683", "lon": "14.3251108"}, {"addr:city": "Jurdani", "addr:country": "HR", "addr:housenumber": "64", "addr:postcode": "51213", "addr:street": "Jurdani", "amenity": "post_office", "fax": "+385 51 525 936", "name": "51213 Jurdani", "opening_hours": "Mo 08:00-17:00, Tu-Fr 08:00-15:00", "operator": "Hrvatska po\u0161ta", "operator:wikidata": "Q507289", "operator:wikipedia": "hr:Hrvatska po\u0161ta", "phone": "+385 51 525 935", "rating": 2, "lat": "45.3956341", "lon": "14.3101142"}, {"addr:city": "Vi\u0161kovo", "addr:country": "HR", "addr:housenumber": "3", "addr:postcode": "51216", "addr:street": "Vozi\u0161\u0107e", "amenity": "post_office", "fax": "+385 51 525 822", "name": "51216 Vi\u0161kovo", "opening_hours": "Mo-Fr 07:00-20:00, Sa 07:00-14:00", "operator": "Hrvatska po\u0161ta", "operator:wikidata": "Q507289", "operator:wikipedia": "hr:Hrvatska po\u0161ta", "phone": "+385 51 525 823", "rating": 2, "lat": "45.3811041", "lon": "14.3861589"}, {"addr:city": "\u010cavle", "addr:country": "HR", "addr:housenumber": "104", "addr:postcode": "51219", "addr:street": "\u010cavle", "amenity": "post_office", "fax": "+385 51 525 829", "name": "51219 \u010cavle", "opening_hours": "Mo-Fr 07:00-20:00, Sa 07:00-14:00", "operator": "Hrvatska po\u0161ta", "operator:wikidata": "Q507289", "operator:wikipedia": "hr:Hrvatska po\u0161ta", "phone": "+385 51 525 828", "rating": 2, "lat": "45.3568743", "lon": "14.4878925"}, {"addr:city": "Bakar", "addr:country": "HR", "addr:housenumber": "213", "addr:postcode": "51222", "addr:street": "Koguli", "amenity": "post_office", "fax": "+385 51 525 938", "name": "Po\u0161ta", "opening_hours": "Mo-Fr 07:00-20:00, Sa 07:00-14:00", "operator": "Hrvatska po\u0161ta", "operator:wikidata": "Q507289", "operator:wikipedia": "hr:Hrvatska po\u0161ta", "phone": "+385 51 525 937", "rating": 2, "lat": "45.3058900", "lon": "14.5346461"}, {"addr:city": "\u0160krljevo", "addr:country": "HR", "addr:housenumber": "bb", "addr:postcode": "51223", "addr:street": "\u0160krljevo", "amenity": "post_office", "fax": "+385 51 525 940", "name": "51223 \u0160krljevo", "opening_hours": "Mo 08:00-17:00, Tu-Fr 08:00-15:00", "operator": "Hrvatska po\u0161ta", "operator:wikidata": "Q507289", "operator:wikipedia": "hr:Hrvatska po\u0161ta", "phone": "+385 51 525 939", "rating": 2, "lat": "45.3192406", "lon": "14.5340238"}, {"addr:city": "Krasica", "addr:country": "HR", "addr:housenumber": "230a", "addr:postcode": "51224", "addr:street": "Krasica", "amenity": "post_office", "fax": "+385 51 525 942", "name": "51224 Krasica", "opening_hours": "Mo 08:00-17:00, Tu-Fr 08:00-15:00", "operator": "Hrvatska po\u0161ta", "operator:wikidata": "Q507289", "operator:wikipedia": "hr:Hrvatska po\u0161ta", "phone": "+385 51 525 941", "rating": 2, "lat": "45.3118483", "lon": "14.5516004"}, {"addr:city": "Kukuljanovo", "addr:country": "HR", "addr:housenumber": "205b", "addr:postcode": "51227", "addr:street": "Kukuljanovo", "amenity": "post_office", "fax": "+385 51 525 946", "name": "51227 Kukuljanovo", "opening_hours": "Mo-Fr 07:30-19:30, Sa 07:30-14:00", "operator": "Hrvatska po\u0161ta", "operator:wikidata": "Q507289", "operator:wikipedia": "hr:Hrvatska po\u0161ta", "phone": "+385 51 525 945", "rating": 2, "lat": "45.3258937", "lon": "14.5218478"}, {"addr:city": "Opatija", "addr:country": "HR", "addr:housenumber": "50", "addr:postcode": "51413", "addr:street": "Andrije \u0160tangera", "amenity": "post_office", "fax": "+385 51 701 660", "name": "51413 Opatija", "opening_hours": "Mo 08:00-17:00, Tu-Fr 08:00-15:00", "operator": "Hrvatska po\u0161ta", "operator:wikidata": "Q507289", "operator:wikipedia": "hr:Hrvatska po\u0161ta", "phone": "+385 51 701 131", "rating": 2, "lat": "45.3471051", "lon": "14.3188660"}, {"name": "Demo", "shop": "bakery", "rating": 1, "lat": "45.3060487", "lon": "14.5351254"}, {"amenity": "atm", "rating": 2, "lat": "45.3061226", "lon": "14.5352037"}, {"amenity": "atm", "rating": 2, "lat": "45.3057301", "lon": "14.5360993"}, {"amenity": "library", "rating": 2, "lat": "45.3057952", "lon": "14.5348847"}, {"amenity": "recycling", "rating": 2, "lat": "45.3058224", "lon": "14.5346974"}, {"amenity": "recycling", "rating": 2, "lat": "45.3038240", "lon": "14.5363020"}, {"amenity": "recycling", "rating": 2, "lat": "45.3078635", "lon": "14.5343589"}, {"ele": "1327", "name": "Sleme", "natural": "peak", "rating": 1, "lat": "45.4136873", "lon": "14.5703271"}, {"ele": "1364", "name": "Malo Rade\u0161evo", "natural": "peak", "rating": 1, "lat": "45.4251420", "lon": "14.5826149"}, {"name": "Tr\u017enica", "opening_hours": "Mo-Th,Su 06:00-22:00; Fr 06:00-24:00; Sa 00:00-03:00,06:00-24:00; Su 00:00-03:00,06:00-22:00", "shop": "bakery", "rating": 1, "lat": "45.3386582", "lon": "14.3084553"}, {"addr:city": "Opatija", "addr:housenumber": "2/1", "addr:postcode": "51410", "addr:street": "Vjekoslava Spin\u010di\u0107a", "name": "Pet shop Trag", "opening_hours": "08:00-19:00", "shop": "pet", "rating": 1, "lat": "45.3386017", "lon": "14.3086048"}, {"name": "Ma\u0107uhica", "shop": "florist", "rating": 1, "lat": "45.3386452", "lon": "14.3088784"}, {"artwork_type": "bust", "historic": "memorial", "memorial": "bust", "name": "Ivo Robi\u0107", "subject:wikidata": "Q1282731", "tourism": "artwork", "rating": 2, "lat": "45.3346287", "lon": "14.3077309"}, {"addr:city": "Rijeka", "addr:postcode": "51000", "amenity": "nightclub", "name": "River Pub", "smoking": "yes", "rating": 2, "lat": "45.3284310", "lon": "14.4420507"}, {"addr:city": "Rijeka", "addr:housenumber": "3", "addr:postcode": "51000", "addr:street": "Pod Ka\u0161telom", "amenity": "pub", "name": "Bar Bar", "opening_hours:covid19": "closed", "rating": 2, "lat": "45.3276277", "lon": "14.4437064"}, {"addr:city": "Rijeka", "addr:housenumber": "25a", "addr:postcode": "51000", "addr:street": "Ba\u0161tijanova", "amenity": "social_facility", "name": "Ru\u017ee svetog Franje", "name:it": "Le rose di San Francesco", "phone": "+385 97 62 69 638", "social_facility": "shelter", "social_facility:for": "homeless", "rating": 2, "lat": "45.3330023", "lon": "14.4439990"}, {"addr:city": "Rijeka", "addr:housenumber": "2D", "addr:postcode": "51000", "addr:street": "\u017deljezni\u010dki prolaz", "amenity": "community_centre", "name": "DSR \"Primorje\"", "rating": 2, "lat": "45.3289740", "lon": "14.4394047"}, {"addr:city": "Rijeka", "addr:postcode": "51000", "addr:street": "Braj\u0161ina", "name": "Aqua-San", "shop": "doityourself", "rating": 1, "lat": "45.3325526", "lon": "14.4408803"}, {"addr:city": "Rijeka", "addr:postcode": "51000", "name": "iNovine", "shop": "kiosk", "rating": 1, "lat": "45.3332559", "lon": "14.4387185"}, {"addr:city": "Rijeka", "addr:postcode": "51000", "addr:street": "Tizianova", "name": "Brodokomerc", "shop": "dairy", "rating": 1, "lat": "45.3337863", "lon": "14.4374018"}, {"amenity": "fast_food", "name": "Leon", "smoking": "outside", "takeaway": "yes", "rating": 2, "lat": "45.3890011", "lon": "14.4673669"}, {"amenity": "bar", "name": "Cooper", "smoking": "yes", "rating": 2, "lat": "45.3892522", "lon": "14.4676112"}, {"amenity": "place_of_worship", "denomination": "roman_catholic", "name": "Kapela Sv. Kri\u017ea", "religion": "christian", "rating": 2, "lat": "45.3652972", "lon": "14.4546832"}, {"amenity": "pharmacy", "drive_through": "no", "rating": 2, "lat": "45.3810538", "lon": "14.3153654"}, {"amenity": "cafe", "tourism": "viewpoint", "rating": 3, "lat": "45.3249820", "lon": "14.4829214"}, {"amenity": "cafe", "facebook": "https://www.facebook.com/pages/category/Hotel/Kavana-Strauss-Hotel-Palace-Bellevue-191176018033770/", "name": "Kavana Strauss", "wheelchair": "limited", "rating": 2, "lat": "45.3322735", "lon": "14.3025640"}, {"amenity": "parking_entrance", "rating": 2, "lat": "45.3295444", "lon": "14.4394128"}, {"amenity": "charging_station", "capacity": "4", "rating": 2, "lat": "45.3296427", "lon": "14.4397263"}, {"amenity": "charging_station", "capacity": "2", "rating": 2, "lat": "45.3296181", "lon": "14.4393467"}, {"amenity": "cafe", "internet_access": "wlan", "name": "Caffe Bar \u0160ta da?", "opening_hours": "Mo-Th 07:00-23:00; Fr 07:00-24:00; Sa 08:00-16:00", "smoking": "yes", "rating": 2, "lat": "45.3302521", "lon": "14.4400612"}, {"artist:wikidata": "Q16110914", "artwork_type": "sculpture", "name": "Vertikala More", "tourism": "artwork", "rating": 2, "lat": "45.3398052", "lon": "14.3783294"}, {"addr:city": "Rijeka", "addr:housenumber": "18", "addr:postcode": "51000", "addr:street": "Korzo", "amenity": "cafe", "internet_access": "yes", "internet_access:fee": "yes", "name": "Mali Cafe", "smoking": "yes", "wifi": "free", "rating": 2, "lat": "45.3269939", "lon": "14.4421047"}, {"amenity": "drinking_water", "name": "Rije\u010dka voda", "rating": 2, "lat": "45.3273012", "lon": "14.4410612"}, {"amenity": "drinking_water", "name": "Rije\u010dka voda", "rating": 2, "lat": "45.3258552", "lon": "14.4455521"}, {"amenity": "vending_machine", "drink:raw_milk": "yes", "name": "Mljekomat u Kauflandu-Rijeka", "note": "Vlasnik mljekomata: Mladen Dra\u0161\u010di\u0107, PPS MAJCANI, Sv.Martin 9/3,52420,Buzet<br>098/938 1050<br>majcani.buzet@gmail.com", "vending": "milk", "rating": 2, "lat": "45.3407004", "lon": "14.3980441"}, {"name": "Li\u0161\u0107evica", "shop": "bakery", "rating": 1, "lat": "45.3627075", "lon": "14.4890222"}, {"name": "Konzum", "shop": "supermarket", "rating": 1, "lat": "45.3306223", "lon": "14.5092327"}, {"brand": "Mlinar", "brand:wikidata": "Q62082464", "name": "Mlinar", "shop": "bakery", "rating": 1, "lat": "45.3287394", "lon": "14.4377072"}, {"name": "Gra\u0111a", "shop": "department_store", "rating": 1, "lat": "45.3283259", "lon": "14.5135615"}, {"addr:street": "Haramijsko selo ", "amenity": "cafe", "name": "Bondej ", "rating": 2, "lat": "45.3492757", "lon": "14.4969058"}, {"amenity": "cafe", "internet_access": "wlan", "name": "Centar ", "rating": 2, "lat": "45.3567956", "lon": "14.4878223"}, {"amenity": "restaurant", "name": "Villa Sandy ", "rating": 2, "lat": "45.3600117", "lon": "14.4857323"}, {"brand": "Mlinar", "brand:wikidata": "Q62082464", "name": "Mlinar", "shop": "bakery", "rating": 1, "lat": "45.3275163", "lon": "14.4398382"}, {"name": "Li\u0161\u0107evica", "shop": "bakery", "rating": 1, "lat": "45.3596374", "lon": "14.4884662"}, {"amenity": "drinking_water", "rating": 2, "lat": "45.3441124", "lon": "14.3824103"}, {"leisure": "sports_centre", "name": "Kayak Center Opatija", "sport": "canoe", "wheelchair": "no", "rating": 1, "lat": "45.3383838", "lon": "14.3103354"}, {"amenity": "bank", "atm": "yes", "brand": "Erste Bank", "brand:wikidata": "Q696867", "brand:wikipedia": "de:Erste Bank", "name": "Erste Bank", "rating": 2, "lat": "45.3429751", "lon": "14.3900917"}, {"amenity": "pharmacy", "rating": 2, "lat": "45.3428921", "lon": "14.3898879"}, {"brand": "Bipa", "brand:wikidata": "Q864933", "brand:wikipedia": "de:Bipa", "level": "1", "name": "Bipa", "shop": "chemist", "rating": 1, "lat": "45.3429525", "lon": "14.3898798"}, {"amenity": "fast_food", "name": "Pizza", "rating": 2, "lat": "45.3435633", "lon": "14.3895311"}, {"name": "Mlinar", "shop": "bakery", "rating": 1, "lat": "45.3434973", "lon": "14.3895901"}, {"name": "Best Buy", "shop": "clothes", "rating": 1, "lat": "45.3441264", "lon": "14.3886091"}, {"amenity": "fast_food", "capacity": "5", "cuisine": "pizza", "delivery": "yes", "name": "Pizza cut", "rating": 2, "lat": "45.3440179", "lon": "14.3887165"}, {"shop": "kiosk", "rating": 1, "lat": "45.3440243", "lon": "14.3874741"}, {"amenity": "pharmacy", "rating": 2, "lat": "45.3446916", "lon": "14.3866813"}, {"amenity": "atm", "rating": 2, "lat": "45.3431727", "lon": "14.3907169"}, {"shop": "kiosk", "rating": 1, "lat": "45.3433707", "lon": "14.3923768"}, {"shop": "bakery", "rating": 1, "lat": "45.3431744", "lon": "14.3906495"}, {"shop": "convenience", "rating": 1, "lat": "45.3431821", "lon": "14.3905197"}, {"shop": "hairdresser", "rating": 1, "lat": "45.3431911", "lon": "14.3904411"}, {"amenity": "drinking_water", "rating": 2, "lat": "45.3438113", "lon": "14.3858595"}, {"historic": "monument", "rating": 1, "lat": "45.3445946", "lon": "14.3863010"}, {"amenity": "cafe", "rating": 2, "lat": "45.3065728", "lon": "14.4888400"}, {"addr:city": "Rijeka", "addr:housenumber": "2a", "addr:postcode": "51000", "addr:street": "Ulica Petra Jur\u010di\u0107a", "amenity": "dentist", "building": "yes", "contact:email": "info@viadent.hr", "contact:phone": "+38551377135", "contact:phone_1": "+385 91 4018110", "contact:website": "http://www.viadent.hr/", "description": "Dentalni centar Viadent ponosi se svojim konstantnim napredovanjem kroz primjenu najnovijih saznanja u svijetu stomatologije.", "name": "Viadent Dental Centar", "rating": 2, "lat": "45.3426996", "lon": "14.3901074"}, {"addr:housenumber": "8", "addr:postcode": "51000", "addr:street": "Omladinska", "amenity": "doctors", "email": "ivan.bolkovac@gmail.com", "healthcare": "alternative", "healthcare:speciality": "osteopathy", "healthcare:speciality:de": "homeopathy", "internet_access": "wlan", "name": "Hiropraktika i Osteopatija Bolkovac", "phone": "0917390088 098261459", "website": "www.hiropraktika-bolkovac.hr", "rating": 2, "lat": "45.3321722", "lon": "14.4380263"}, {"amenity": "atm", "currency:HRK": "yes", "currency:XBT": "yes", "operator": "BSpend", "payment:bitcoin": "yes", "payment:notes": "yes", "website": "http://www.bspend.com/", "rating": 2, "lat": "45.3263445", "lon": "14.4390711"}, {"addr:street": "Ru\u017ei\u0107eva", "amenity": "nightclub", "name": "Crkva", "website": "https://www.facebook.com/mi.smo.crkva/", "rating": 2, "lat": "45.3310542", "lon": "14.4525038"}, {"historic": "memorial", "material": "stone", "memorial": "obelisk", "name": "Piramida", "rating": 1, "lat": "45.3240658", "lon": "14.4552341"}, {"name": "Luka Martin\u0161\u0107ica", "natural": "bay", "source": "geoportal.dgu.hr: TK25 (Topografska karta 1:25000)", "rating": 1, "lat": "45.3133532", "lon": "14.4789834"}, {"amenity": "car_wash", "name": "Aquarama Car Wash", "rating": 2, "lat": "45.3620153", "lon": "14.3924290"}, {"addr:city": "Rijeka", "addr:housenumber": "39", "addr:postcode": "51101", "addr:street": "Korzo", "amenity": "post_office", "name": "51101 Hrvatska po\u0161ta", "opening_hours": "Mo-Fr 07:00-20:00, Sa 07:00-14:00", "operator": "Hrvatska po\u0161ta", "operator:wikidata": "Q507289", "operator:wikipedia": "hr:Hrvatska po\u0161ta", "phone": "+385 72 303304", "website": "https://www.posta.hr/default.aspx?pretpum&uredi=848", "rating": 2, "lat": "45.3274367", "lon": "14.4399838"}, {"addr:city": "Opatija", "addr:housenumber": "10", "addr:postcode": "51410", "addr:street": "Nova cesta", "contact:email": "da-riva@da-riva.hr", "contact:phone": "+385 51 272990", "contact:website": "http://www.da-riva.hr/en", "description": "The success of our agency is based on a wide range of offers. From the beginning the idea was to provide a complete solution for travel and provide a professional and quick tailored service to each one of our individual clients.", "name": "Tourist agency Da Riva", "shop": "travel_agency", "rating": 1, "lat": "45.3554751", "lon": "14.3207937"}, {"amenity": "restaurant", "internet_access": "wlan", "name": "Molo Opatija", "rating": 2, "lat": "45.3362927", "lon": "14.3106976"}, {"amenity": "shower", "fee": "no", "rating": 2, "lat": "45.3481426", "lon": "14.3449860"}, {"amenity": "shower", "fee": "no", "rating": 2, "lat": "45.3485328", "lon": "14.3436985"}, {"amenity": "shower", "fee": "no", "rating": 2, "lat": "45.3493056", "lon": "14.3425157"}, {"amenity": "shower", "fee": "no", "rating": 2, "lat": "45.3500182", "lon": "14.3418880"}, {"amenity": "shower", "fee": "no", "rating": 2, "lat": "45.3500860", "lon": "14.3413167"}, {"amenity": "shower", "fee": "no", "rating": 2, "lat": "45.3518944", "lon": "14.3368656"}, {"name": "BFT Adria", "shop": "electronics", "website": "http://bft.hr", "rating": 1, "lat": "45.3941897", "lon": "14.4693323"}, {"amenity": "restaurant", "name": "Mornar", "rating": 2, "lat": "45.3247494", "lon": "14.4416997"}, {"amenity": "bar", "name": "Corto Maltese", "rating": 2, "lat": "45.3238720", "lon": "14.4389097"}, {"amenity": "restaurant", "name": "Pla\u00e7a 51", "phone": "051546454", "website": "http://www.placa51.com", "rating": 2, "lat": "45.3251159", "lon": "14.4419607"}, {"amenity": "drinking_water", "rating": 2, "lat": "45.3438463", "lon": "14.3154966"}, {"amenity": "drinking_water", "wheelchair": "yes", "rating": 2, "lat": "45.3472394", "lon": "14.3206489"}, {"name": "Ferro trgovina", "shop": "hardware", "rating": 1, "lat": "45.3868249", "lon": "14.3139632"},